S.No,setpoint_raw-global_Time,setpoint_raw-global_header.seq,setpoint_raw-global_header.stamp.secs,setpoint_raw-global_latitude,setpoint_raw-global_longitude,setpoint_raw-global_altitude,battery_Time,battery_header.seq,battery_header.stamp.secs,battery_voltage,battery_current,battery_temperature,battery_percentage,global_position-local_Time,global_position-local_header.seq,global_position-local_header.stamp.secs,global_position-local_pose.pose.position.x,global_position-local_pose.pose.position.y,global_position-local_pose.pose.position.z,global_position-local_pose.pose.orientation.x,global_position-local_pose.pose.orientation.y,global_position-local_pose.pose.orientation.z,global_position-local_twist.twist.linear.x,global_position-local_twist.twist.linear.y,global_position-local_twist.twist.linear.z,imu-data_Time,imu-data_header.seq,imu-data_header.stamp.secs,imu-data_orientation.x,imu-data_orientation.y,imu-data_orientation.z,imu-data_orientation.w,imu-data_angular_velocity.x,imu-data_angular_velocity.y,imu-data_angular_velocity.z,rc-out_Time,rc-out_header.seq,rc-out_header.stamp.secs,rc-out_channels_0,rc-out_channels_1,rc-out_channels_2,rc-out_channels_3,rc-out_channels_4,vfr_hud_Time,vfr_hud_header.seq,vfr_hud_header.stamp.secs,vfr_hud_airspeed,vfr_hud_groundspeed,vfr_hud_heading,vfr_hud_throttle,vfr_hud_altitude,vfr_hud_climb,global_position-global_header.stamp.secs,global_position-global_altitude,global_position-global_longitude,global_position-global_latitude,global_position-raw-satellites_data,setpoint_raw-target_global_Time,setpoint_raw-target_global_header.seq,setpoint_raw-target_global_header.stamp.secs,setpoint_raw-target_global_latitude,setpoint_raw-target_global_longitude,setpoint_raw-target_global_altitude,setpoint_raw-target_global_yaw,state_Time,state_header.seq,state_connected,state_armed,state_guided,state_manual_input,state_system_status,RSSI_Time,RSSI_Quality,RSSI_Signal,CPU_Time,CPU_Percent,RAM_Time,Used_RAM_MB
0,1729405667.4017062,1,0,33.69787970797427,73.01650382293268,1.25,1729405664.2744746,8332,1729405664,0.1850000023841858,0.01,0,-0.01,1729405664.2690563,8314,1729405662,1.353682987992851,-1.564054033,-0.007,-0.040434252,0.002760955,-0.939184931,0.05,-0.02,0,1729405664,8318,1729405662,-0.040448174,0.002692025,-0.939161362,0.3410757005958313,0.000671072,-0.001373732,-0.000606741,1729405664.2737055,8327,1729405663,1000,1000,1000,1000,0,1729405664.2799067,8331,1729405664,0.057491865,0.051430658,229,0,555.2199707,-0.0256944,1729405662,509.0497706,73.0165341,33.6978286,13,1729405667.483475,1273,1729405667,33.6978797,73.0165038,556.5399780273438,1.5707963705062866,1729405664.2740011,922,1,1,1,1,5,1729405670.214721,0.9857142857142858,-41,1729405669.846916,44.9,1729405673,11.2
1,1729405667.4068892,2,0,33.69787970797427,73.01650382293268,1.25,,,,,,,,,,,,,,,,,,,,,,,,,,,,,,,,,,,,,,,,,,,,,,,,,,,,,,,,,,,,,,,,,,,,,,,,
2,1729405667.4069364,3,0,33.69787970797427,73.01650382293268,1.25,,,,,,,,,,,,,,,,,,,,,,,,,,,,,,,,,,,,,,,,,,,,,,,,,,,,,,,,,,,,,,,,,,,,,,,,
3,1729405667.4069612,4,0,33.69787970797427,73.01650382293268,1.25,,,,,,,,,,,,,,,,,,,,,,,,,,,,,,,,,,,,,,,,,,,,,,,,,,,,,,,,,,,,,,,,,,,,,,,,
4,1729405667.409104,5,0,33.69787970797427,73.01650382293268,1.25,,,,,,,,,,,,,,,,,,,,,,,,,,,,,,,,,,,,,,,,,,,,,,,,,,,,,,,,,,,,,,,,,,,,,,,,
5,1729405667.409167,6,0,33.69787970797427,73.01650382293268,1.25,,,,,,,,,,,,,,,,,,,,,,,,,,,,,,,,,,,,,,,,,,,,,,,,,,,,,,,,,,,,,,,,,,,,,,,,
6,1729405667.4093146,7,0,33.69787970797427,73.01650382293268,1.25,,,,,,,,,,,,,,,,,,,,,,,,,,,,,,,,,,,,,,,,,,,,,,,,,,,,,,,,,,,,,,,,,,,,,,,,
7,1729405667.4093494,8,0,33.69787970797427,73.01650382293268,1.25,,,,,,,,,,,,,,,,,,,,,,,,,,,,,,,,,,,,,,,,,,,,,,,,,,,,,,,,,,,,,,,,,,,,,,,,
8,1729405667.4093845,9,0,33.69787970797427,73.01650382293268,1.25,,,,,,,,,,,,,,,,,,,,,,,,,,,,,,,,,,,,,,,,,,,,,,,,,,,,,,,,,,,,,,,,,,,,,,,,
9,1729405667.4094105,10,0,33.69787970797427,73.01650382293268,1.25,,,,,,,,,,,,,,,,,,,,,,,,,,,,,,,,,,,,,,,,,,,,,,,,,,,,,,,,,,,,,,,,,,,,,,,,
10,1729405667.4094334,11,0,33.69787970797427,73.01650382293268,1.25,,,,,,,,,,,,,,,,,,,,,,,,,,,,,,,,,,,,,,,,,,,,,,,,,,,,,,,,,,,,,,,,,,,,,,,,
11,1729405667.409567,12,0,33.69787970797427,73.01650382293268,1.25,,,,,,,,,,,,,,,,,,,,,,,,,,,,,,,,,,,,,,,,,,,,,,,,,,,,,,,,,,,,,,,,,,,,,,,,
12,1729405667.4120932,13,0,33.69787970797427,73.01650382293268,1.25,,,,,,,,,,,,,,,,,,,,,,,,,,,,,,,,,,,,,,,,,,,,,,,,,,,,,,,,,,,,,,,,,,,,,,,,
13,1729405667.4121425,14,0,33.69787970797427,73.01650382293268,1.25,,,,,,,,,,,,,,,,,,,,,,,,,,,,,,,,,,,,,,,,,,,,,,,,,,,,,,,,,,,,,,,,,,,,,,,,
14,1729405667.412911,15,0,33.69787970797427,73.01650382293268,1.25,,,,,,,,,,,,,,,,,,,,,,,,,,,,,,,,,,,,,,,,,,,,,,,,,,,,,,,,,,,,,,,,,,,,,,,,
15,1729405667.4130795,16,0,33.69787970797427,73.01650382293268,1.25,,,,,,,,,,,,,,,,,,,,,,,,,,,,,,,,,,,,,,,,,,,,,,,,,,,,,,,,,,,,,,,,,,,,,,,,
16,1729405667.4172318,17,0,33.69787970797427,73.01650382293268,1.25,,,,,,,,,,,,,,,,,,,,,,,,,,,,,,,,,,,,,,,,,,,,,,,,,,,,,,,,,,,,,,,,,,,,,,,,
17,1729405667.4172754,18,0,33.69787970797427,73.01650382293268,1.25,,,,,,,,,,,,,,,,,,,,,,,,,,,,,,,,,,,,,,,,,,,,,,,,,,,,,,,,,,,,,,,,,,,,,,,,
18,1729405667.417302,19,0,33.69787970797427,73.01650382293268,1.25,,,,,,,,,,,,,,,,,,,,,,,,,,,,,,,,,,,,,,,,,,,,,,,,,,,,,,,,,,,,,,,,,,,,,,,,
19,1729405667,20,0,33.69787970797427,73.01650382293268,1.25,,,,,,,,,,,,,,,,,,,,,,,,,,,,,,,,,,,,,,,,,,,,,,,,,,,,,,,,,,,,,,,,,,,,,,,,
20,1729405667.417992,21,0,33.69787970797427,73.01650382293268,1.25,,,,,,,,,,,,,,,,,,,,,,,,,,,,,,,,,,,,,,,,,,,,,,,,,,,,,,,,,,,,,,,,,,,,,,,,
21,1729405667.4180138,22,0,33.69787970797427,73.01650382293268,1.25,,,,,,,,1729405664.2691526,8315,1729405662,1.353682987992851,-1.564054033,-0.007,-0.040442295,0.00273168,-0.939178882,0.05,-0.02,0,1729405664.2701416,8319,1729405663,-0.040464697,0.00268264,-0.939150262,0.3411043786233788,4.606047878041864e-05,-0.000868974,-8.52E-05,,,,,,,,,,,,,,,,,,1729405662,509.0497699144408,73.0165341,33.6978285,13,,,,,,,,,,,,,,,,,,,,,
22,1729405667.419794,23,0,33.69787970797427,73.01650382293268,1.25,1729405664.2748232,8333,1729405664,0.1790000051259994,0.01,0,-0.01,,,,,,,,,,,,,,,,,,,,,,,1729405664.274058,8328,1729405663,1000,1000,1000,1000,0,1729405664.3775332,8332,1729405664,0.0584516,0.052036121,229,0,555.2199707,-0.026623867,,,,,,,,,,,,,,,,,,,,,,,,,,
23,1729405667.419943,24,0,33.69787970797427,73.01650382293268,1.25,,,,,,,,,,,,,,,,,,,,,,,,,,,,,,,,,,,,,,,,,,,,,,,,,,,,,,,,,,,,,,,,,,,,,,,,
24,1729405667.4199705,25,0,33.69787970797427,73.01650382293268,1.25,,,,,,,,,,,,,,,,,,,,,,,,,,,,,,,,,,,,,,,,,,,,,,,,,,,,,,,,,,,,,,,,,,,,,,,,
25,1729405667.419994,26,0,33.69787970797427,73.01650382293268,1.25,,,,,,,,,,,,,,,,,,,,,,,,,,,,,,,,,,,,,,,,,,,,,,,,,,,,,,,,,,,,,,,,,,,,,,,,
26,1729405667.4201388,27,0,33.69787970797427,73.01650382293268,1.25,,,,,,,,,,,,,,,,,,,,,,,,,,,,,,,,,,,,,,,,,,,,,,,,,,,,,,,,,,,,,,,,,,,,,,,,
27,1729405667.4201784,28,0,33.69787970797427,73.01650382293268,1.25,,,,,,,,,,,,,,,,,,,,,,,,,,,,,,,,,,,,,,,,,,,,,,,,,,,,,,,,,,,,,,,,,,,,,,,,
28,1729405667.420231,29,0,33.69787970797427,73.01650382293268,1.25,,,,,,,,,,,,,,,,,,,,,,,,,,,,,,,,,,,,,,,,,,,,,,,,,,,,1729405667.5917914,1274,1729405667,33.6978797,73.0165038,556.5399780273438,1.5707963705062866,,,,,,,,,,,,,,
29,1729405667.420262,30,0,33.69787970797427,73.01650382293268,1.25,,,,,,,,,,,,,,,,,,,,,,,,,,,,,,,,,,,,,,,,,,,,,,,,,,,,,,,,,,,,,,,,,,,,,,,,
30,1729405667.4203365,31,0,33.69787970797427,73.01650382293268,1.25,,,,,,,,,,,,,,,,,,,,,,,,,,,,,,,,,,,,,,,,,,,,,,,,,,,,,,,,,,,,,,,,,,,,,,,,
31,1729405667.4203627,32,0,33.69787970797427,73.01650382293268,1.25,,,,,,,,,,,,,,,,,,,,,,,,,,,,,,,,,,,,,,,,,,,,,,,,,,,,,,,,,,,,,,,,,,,,,,,,
32,1729405667.5116942,33,0,33.69787970797427,73.01650382293268,1.25,,,,,,,,,,,,,,,,,,,,,,,,,,,,,,,,,,,,,,,,,,,,,,,,,,,,,,,,,,,,,,,,,,,,,,,,
33,1729405667.5117311,34,0,33.69787970797427,73.01650382293268,1.25,,,,,,,,,,,,,,,,,,,,,,,,,,,,,,,,,,,,,,,,,,,,,,,,,,,,,,,,,,,,,,,,,,,,,,,,
34,1729405667.5119376,35,0,33.69787970797427,73.01650382293268,1.25,,,,,,,,,,,,,,,,,,,,,,,,,,,,,,,,,,,,,,,,,,,,,,,,,,,,,,,,,,,,,,,,,,,,,,,,
35,1729405667.5121536,36,0,33.69787970797427,73.01650382293268,1.25,,,,,,,,,,,,,,,,,,,,,,,,,,,,,,,,,,,,,,,,,,,,,,,,,,,,,,,,,,,,,,,,,,,,,,,,
36,1729405667.5121908,37,0,33.69787970797427,73.01650382293268,1.25,,,,,,,,,,,,,,,,,,,,,,,,,,,,,,,,,,,,,,,,,,,,,,,,,,,,,,,,,,,,,,,,,,,,,,,,
37,1729405667.512229,38,0,33.69787970797427,73.01650382293268,1.25,,,,,,,,,,,,,,,,,,,,,,,,,,,,,,,,,,,,,,,,,,,,,,,,,,,,,,,,,,,,,,,,,,,,,,,,
38,1729405667.512255,39,0,33.69787970797427,73.01650382293268,1.25,,,,,,,,,,,,,,,,,,,,,,,,,,,,,,,,,,,,,,,,,,,,,,,,,,,,,,,,,,,,,,,,,,,,,,,,
39,1729405667.5127826,40,0,33.69787970797427,73.01650382293268,1.25,,,,,,,,,,,,,,,,,,,,,,,,,,,,,,,,,,,,,,,,,,,,,,,,,,,,,,,,,,,,,,,,,,,,,,,,
40,1729405667.5130732,41,0,33.69787970797427,73.01650382293268,1.25,,,,,,,,,,,,,,,,,,,,,,,,,,,,,,,,,,,,,,,,,,,,,,,,,,,,,,,,,,,,,,,,,,,,,,,,
41,1729405667.5131052,42,0,33.69787970797427,73.01650382293268,1.25,,,,,,,,,,,,,,,,,,,,,,,,,,,,,,,,,,,,,,,,,,,,,,,,,,,,,,,,,,,,,,,,,,,,,,,,
42,1729405667.5131269,43,0,33.69787970797427,73.01650382293268,1.25,,,,,,,,1729405664.2698283,8316,1729405662,1.3536829894036282,-1.575146616,-0.006,-0.040444356,0.002733695,-0.939173437,0.05,-0.01,0,1729405664.2703142,8320,1729405663,-0.040482438,0.002698648,-0.939139966,0.3411304949046756,0.000285934,-0.00092707,-0.000766999,,,,,,,,,,,,,,,,,,1729405662,509.0497699144408,73.0165341,33.6978285,13,,,,,,,,,,,,,,,,,,,,,
43,1729405667.5134766,44,0,33.69787970797427,73.01650382293268,1.25,,,,,,,,,,,,,,,,,,,,,,,,,,,,,,,,,,,,,,,,,,,,,,,,,,,,,,,,,,,,,,,,,,,,,,,,
44,1729405667.5135474,45,0,33.69787970797427,73.01650382293268,1.25,1729405664.2859037,8334,1729405664,0.1790000051259994,0.01,0,-0.01,,,,,,,,,,,,,,,,,,,,,,,1729405664.274346,8329,1729405664,1000,1000,1000,1000,0,1729405664.474581,8333,1729405664,0.059317779,0.052957699,229,0,555.2099609,-0.026722286,,,,,,,,,,,,,,,,,,,,,,,,,,
45,1729405667.5135694,46,0,33.69787970797427,73.01650382293268,1.25,,,,,,,,,,,,,,,,,,,,,,,,,,,,,,,,,,,,,,,,,,,,,,,,,,,,,,,,,,,,,,,,,,,,,,,,
46,1729405667.5136924,47,0,33.69787970797427,73.01650382293268,1.25,,,,,,,,,,,,,,,,,,,,,,,,,,,,,,,,,,,,,,,,,,,,,,,,,,,,,,,,,,,,,,,,,,,,,,,,
47,1729405667.5137212,48,0,33.69787970797427,73.01650382293268,1.25,,,,,,,,,,,,,,,,,,,,,,,,,,,,,,,,,,,,,,,,,,,,,,,,,,,,,,,,,,,,,,,,,,,,,,,,
48,1729405667.5137596,49,0,33.69787970797427,73.01650382293268,1.25,,,,,,,,,,,,,,,,,,,,,,,,,,,,,,,,,,,,,,,,,,,,,,,,,,,,,,,,,,,,,,,,,,,,,,,,
49,1729405667.513798,50,0,33.69787970797427,73.01650382293268,1.25,,,,,,,,,,,,,,,,,,,,,,,,,,,,,,,,,,,,,,,,,,,,,,,,,,,,,,,,,,,,,,,,,,,,,,,,
50,1729405667.5138333,51,0,33.69787970797427,73.01650382293268,1.25,,,,,,,,,,,,,,,,,,,,,,,,,,,,,,,,,,,,,,,,,,,,,,,,,,,,,,,,,,,,,,,,,,,,,,,,
51,1729405667.513855,52,0,33.69787970797427,73.01650382293268,1.25,,,,,,,,,,,,,,,,,,,,,,,,,,,,,,,,,,,,,,,,,,,,,,,,,,,,,,,,,,,,,,,,,,,,,,,,
52,1729405667.5140078,53,0,33.69787970797427,73.01650382293268,1.25,,,,,,,,,,,,,,,,,,,,,,,,,,,,,,,,,,,,,,,,,,,,,,,,,,,,,,,,,,,,,,,,,,,,,,,,
53,1729405667.5141642,54,0,33.69787970797427,73.01650382293268,1.25,,,,,,,,,,,,,,,,,,,,,,,,,,,,,,,,,,,,,,,,,,,,,,,,,,,,,,,,,,,,,,,,,,,,,,,,
54,1729405667.5141869,55,0,33.69787970797427,73.01650382293268,1.25,,,,,,,,,,,,,,,,,,,,,,,,,,,,,,,,,,,,,,,,,,,,,,,,,,,,,,,,,,,,,,,,,,,,,,,,
55,1729405667.5143402,56,0,33.69787970797427,73.01650382293268,1.25,,,,,,,,,,,,,,,,,,,,,,,,,,,,,,,,,,,,,,,,,,,,,,,,,,,,,,,,,,,,,,,,,,,,,,,,
56,1729405667.5143669,57,0,33.69787970797427,73.01650382293268,1.25,,,,,,,,,,,,,,,,,,,,,,,,,,,,,,,,,,,,,,,,,,,,,,,,,,,,1729405667.719429,1275,1729405667,33.6978797,73.0165038,556.5399780273438,1.5707963705062866,,,,,,,,,,,,,,
57,1729405667.5143874,58,0,33.69787970797427,73.01650382293268,1.25,,,,,,,,,,,,,,,,,,,,,,,,,,,,,,,,,,,,,,,,,,,,,,,,,,,,,,,,,,,,,,,,,,,,,,,,
58,1729405667.5144083,59,0,33.69787970797427,73.01650382293268,1.25,,,,,,,,,,,,,,,,,,,,,,,,,,,,,,,,,,,,,,,,,,,,,,,,,,,,,,,,,,,,,,,,,,,,,,,,
59,1729405667.5144963,60,0,33.69787970797427,73.01650382293268,1.25,,,,,,,,,,,,,,,,,,,,,,,,,,,,,,,,,,,,,,,,,,,,,,,,,,,,,,,,,,,,,,,,,,,,,,,,
60,1729405667.5146463,61,0,33.69787970797427,73.01650382293268,1.25,,,,,,,,,,,,,,,,,,,,,,,,,,,,,,,,,,,,,,,,,,,,,,,,,,,,,,,,,,,,,,,,,,,,,,,,
61,1729405667.5166795,62,0,33.69787970797427,73.01650382293268,1.25,,,,,,,,,,,,,,,,,,,,,,,,,,,,,,,,,,,,,,,,,,,,,,,,,,,,,,,,,,,,,,,,,,,,,,,,
62,1729405667.5168867,63,0,33.69787970797427,73.01650382293268,1.25,,,,,,,,,,,,,,,,,,,,,,,,,,,,,,,,,,,,,,,,,,,,,,,,,,,,,,,,,,,,,,,,,,,,,,,,
63,1729405667.516914,64,0,33.69787970797427,73.01650382293268,1.25,,,,,,,,1729405664.269931,8317,1729405662,1.3536829894036282,-1.575146616,-0.007,-0.04042848,0.002719926,-0.939166923,0.05,-0.01,0,1729405664.270369,8321,1729405663,-0.040493304,0.002712251,-0.939134883,0.3411430891947047,-0.000613889,-0.000277058,-0.000331975,,,,,,,,,,,,,,,,,,1729405662,509.0497699144408,73.0165341,33.6978285,13,,,,,,,,,,,,,,,,,,,,,
64,1729405667.516934,65,0,33.69787970797427,73.01650382293268,1.25,,,,,,,,,,,,,,,,,,,,,,,,,,,,,,,,,,,,,,,,,,,,,,,,,,,,,,,,,,,,,,,,,,,,,,,,
65,1729405667.5171497,66,0,33.69787970797427,73.01650382293268,1.25,,,,,,,,,,,,,,,,,,,,,,,,,,,,,,,,,,,,,,,,,,,,,,,,,,,,,,,,,,,,,,,,,,,,,,,,
66,1729405667.5171869,67,0,33.69787970797427,73.01650382293268,1.25,1729405664.3863077,8335,1729405664,0.1879999935626983,0.01,0,-0.01,,,,,,,,,,,,,,,,,,,,,,,1729405664.2744968,8330,1729405664,1000,1000,1000,1000,0,1729405664.5785396,8334,1729405664,0.06215021,0.05517865,230,0,555.2099609,-0.02860008,,,,,,,,,,,,,,,,,,,,,,,,,,
67,1729405667.5173218,68,0,33.69787970797427,73.01650382293268,1.25,,,,,,,,,,,,,,,,,,,,,,,,,,,,,,,,,,,,,,,,,,,,,,,,,,,,,,,,,,,,,,,,,,,,,,,,
68,1729405668,69,0,33.69787970797427,73.01650382293268,1.25,,,,,,,,,,,,,,,,,,,,,,,,,,,,,,,,,,,,,,,,,,,,,,,,,,,,,,,,,,,,,,,,,,,,,,,,
69,1729405667.5174172,70,0,33.69787970797427,73.01650382293268,1.25,,,,,,,,,,,,,,,,,,,,,,,,,,,,,,,,,,,,,,,,,,,,,,,,,,,,,,,,,,,,,,,,,,,,,,,,
70,1729405667.5179532,71,0,33.69787970797427,73.01650382293268,1.25,,,,,,,,,,,,,,,,,,,,,,,,,,,,,,,,,,,,,,,,,,,,,,,,,,,,,,,,,,,,,,,,,,,,,,,,
71,1729405667.5179908,72,0,33.69787970797427,73.01650382293268,1.25,,,,,,,,,,,,,,,,,,,,,,,,,,,,,,,,,,,,,,,,,,,,,,,,,,,,,,,,,,,,,,,,,,,,,,,,
72,1729405667.5181296,73,0,33.69787970797427,73.01650382293268,1.25,,,,,,,,,,,,,,,,,,,,,,,,,,,,,,,,,,,,,,,,,,,,,,,,,,,,,,,,,,,,,,,,,,,,,,,,
73,1729405667.5181592,74,0,33.69787970797427,73.01650382293268,1.25,,,,,,,,,,,,,,,,,,,,,,,,,,,,,,,,,,,,,,,,,,,,,,,,,,,,,,,,,,,,,,,,,,,,,,,,
74,1729405667.518181,75,0,33.69787970797427,73.01650382293268,1.25,,,,,,,,,,,,,,,,,,,,,,,,,,,,,,,,,,,,,,,,,,,,,,,,,,,,,,,,,,,,,,,,,,,,,,,,
75,1729405667.5182014,76,0,33.69787970797427,73.01650382293268,1.25,,,,,,,,,,,,,,,,,,,,,,,,,,,,,,,,,,,,,,,,,,,,,,,,,,,,,,,,,,,,,,,,,,,,,,,,
76,1729405667.5182729,77,0,33.69787970797427,73.01650382293268,1.25,,,,,,,,,,,,,,,,,,,,,,,,,,,,,,,,,,,,,,,,,,,,,,,,,,,,,,,,,,,,,,,,,,,,,,,,
77,1729405667.5182948,78,0,33.69787970797427,73.01650382293268,1.25,,,,,,,,,,,,,,,,,,,,,,,,,,,,,,,,,,,,,,,,,,,,,,,,,,,,,,,,,,,,,,,,,,,,,,,,
78,1729405667.5187914,79,0,33.69787970797427,73.01650382293268,1.25,,,,,,,,,,,,,,,,,,,,,,,,,,,,,,,,,,,,,,,,,,,,,,,,,,,,,,,,,,,,,,,,,,,,,,,,
79,1729405667.5190156,80,0,33.69787970797427,73.01650382293268,1.25,,,,,,,,,,,,,,,,,,,,,,,,,,,,,,,,,,,,,,,,,,,,,,,,,,,,,,,,,,,,,,,,,,,,,,,,
80,1729405667.5190475,81,0,33.69787970797427,73.01650382293268,1.25,,,,,,,,,,,,,,,,,,,,,,,,,,,,,,,,,,,,,,,,,,,,,,,,,,,,,,,,,,,,,,,,,,,,,,,,
81,1729405667.5192316,82,0,33.69787970797427,73.01650382293268,1.25,,,,,,,,,,,,,,,,,,,,,,,,,,,,,,,,,,,,,,,,,,,,,,,,,,,,,,,,,,,,,,,,,,,,,,,,
82,1729405667.5192566,83,0,33.69787970797427,73.01650382293268,1.25,,,,,,,,,,,,,,,,,,,,,,,,,,,,,,,,,,,,,,,,,,,,,,,,,,,,,,,,,,,,,,,,,,,,,,,,
83,1729405667.5195396,84,0,33.69787970797427,73.01650382293268,1.25,,,,,,,,,,,,,,,,,,,,,,,,,,,,,,,,,,,,,,,,,,,,,,,,,,,,,,,,,,,,,,,,,,,,,,,,
84,1729405667.5195715,85,0,33.69787970797427,73.01650382293268,1.25,,,,,,,,1729405664.2700837,8318,1729405662,1.3536829894036282,-1.575146616,-0.008,-0.040448174,0.002692025,-0.939161362,0.05,-0.01,0,1729405664.2717211,8322,1729405663,-0.04052505,0.002736478,-0.93913485,0.3411392173302471,-0.000602155,-0.000566999,-0.000468937,,,,,,,,,,,,,,,,,,1729405663,509.0397699144408,73.0165341,33.6978285,13,1729405667.7911286,1276,1729405667,33.6978798,73.0165036,556.5399780273438,1.5707963705062866,,,,,,,,,,,,,,
85,1729405667.5196023,86,0,33.69787970797427,73.01650382293268,1.25,,,,,,,,,,,,,,,,,,,,,,,,,,,,,,,,,,,,,,,,,,,,,,,,,,,,,,,,,,,,,,,,,,,,,,,,
86,1729405667.519627,87,0,33.69787970797427,73.01650382293268,1.25,,,,,,,,,,,,,,,,,,,,,,,,,,,,,,,,,,,,,,,,,,,,,,,,,,,,,,,,,,,,,,,,,,,,,,,,
87,1729405667.519693,88,0,33.69787970797427,73.01650382293268,1.25,,,,,,,,,,,,,,,,,,,,,,,,,,,,,,,,,,,,,,,,,,,,,,,,,,,,,,,,,,,,,,,,,,,,,,,,
88,1729405667.519715,89,0,33.69787970797427,73.01650382293268,1.25,1729405664.4868505,8336,1729405664,0.1879999935626983,0.01,0,-0.01,,,,,,,,,,,,,,,,,,,,,,,1729405664.2795978,8331,1729405664,1000,1000,1000,1000,0,1729405664.6746037,8335,1729405664,0.054530699,0.048210736,229,0,555.2099609,-0.025481805,,,,,,,,,,,,,,,,,,,,,,,,,,
89,1729405667.519899,90,0,33.69787970797427,73.01650382293268,1.25,,,,,,,,,,,,,,,,,,,,,,,,,,,,,,,,,,,,,,,,,,,,,,,,,,,,,,,,,,,,,,,,,,,,,,,,
90,1729405667.5199232,91,0,33.69787970797427,73.01650382293268,1.25,,,,,,,,,,,,,,,,,,,,,,,,,,,,,,,,,,,,,,,,,,,,,,,,,,,,,,,,,,,,,,,,,,,,,,,,
91,1729405667.520059,92,0,33.69787970797427,73.01650382293268,1.25,,,,,,,,,,,,,,,,,,,,,,,,,,,,,,,,,,,,,,,,,,,,,,,,,,,,,,,,,,,,,,,,,,,,,,,,
92,1729405667.520083,93,0,33.69787970797427,73.01650382293268,1.25,,,,,,,,,,,,,,,,,,,,,,,,,,,,,,,,,,,,,,,,,,,,,,,,,,,,,,,,,,,,,,,,,,,,,,,,
93,1729405667.5201528,94,0,33.69787970797427,73.01650382293268,1.25,,,,,,,,,,,,,,,,,,,,,,,,,,,,,,,,,,,,,,,,,,,,,,,,,,,,,,,,,,,,,,,,,,,,,,,,
94,1729405667.5201774,95,0,33.69787970797427,73.01650382293268,1.25,,,,,,,,,,,,,,,,,,,,,,,,,,,,,,,,,,,,,,,,,,,,,,,,,,,,,,,,,,,,,,,,,,,,,,,,
95,1729405667.5203197,96,0,33.69787970797427,73.01650382293268,1.25,,,,,,,,,,,,,,,,,,,,,,,,,,,,,,,,,,,,,,,,,,,,,,,,,,,,,,,,,,,,,,,,,,,,,,,,
96,1729405667.5203476,97,0,33.69787970797427,73.01650382293268,1.25,,,,,,,,,,,,,,,,,,,,,,,,,,,,,,,,,,,,,,,,,,,,,,,,,,,,,,,,,,,,,,,,,,,,,,,,
97,1729405667.520475,98,0,33.69787970797427,73.01650382293268,1.25,,,,,,,,,,,,,,,,,,,,,,,,,,,,,,,,,,,,,,,,,,,,,,,,,,,,,,,,,,,,,,,,,,,,,,,,
98,1729405667.520501,99,0,33.69787970797427,73.01650382293268,1.25,,,,,,,,,,,,,,,,,,,,,,,,,,,,,,,,,,,,,,,,,,,,,,,,,,,,,,,,,,,,,,,,,,,,,,,,
99,1729405667.5205438,100,0,33.69787970797427,73.01650382293268,1.25,,,,,,,,,,,,,,,,,,,,,,,,,,,,,,,,,,,,,,,,,,,,,,,,,,,,,,,,,,,,,,,,,,,,,,,,
100,1729405667.5205736,101,0,33.69787970797427,73.01650382293268,1.25,,,,,,,,,,,,,,,,,,,,,,,,,,,,,,,,,,,,,,,,,,,,,,,,,,,,,,,,,,,,,,,,,,,,,,,,
101,1729405667.5207114,102,0,33.69787970797427,73.01650382293268,1.25,,,,,,,,,,,,,,,,,,,,,,,,,,,,,,,,,,,,,,,,,,,,,,,,,,,,,,,,,,,,,,,,,,,,,,,,
102,1729405667.5208485,103,0,33.69787970797427,73.01650382293268,1.25,,,,,,,,,,,,,,,,,,,,,,,,,,,,,,,,,,,,,,,,,,,,,,,,,,,,,,,,,,,,,,,,,,,,,,,,
103,1729405667.5208795,104,0,33.69787970797427,73.01650382293268,1.25,,,,,,,,,,,,,,,,,,,,,,,,,,,,,,,,,,,,,,,,,,,,,,,,,,,,,,,,,,,,,,,,,,,,,,,,
104,1729405667.5210097,105,0,33.69787970797427,73.01650382293268,1.25,,,,,,,,,,,,,,,,,,,,,,,,,,,,,,,,,,,,,,,,,,,,,,,,,,,,,,,,,,,,,,,,,,,,,,,,
105,1729405667.5210345,106,0,33.69787970797427,73.01650382293268,1.25,,,,,,,,1729405664.2701387,8319,1729405663,1.3536829874660252,-1.575146614,-0.012,-0.040464697,0.00268264,-0.939150262,0.05,-0.01,0.01,1729405664.272445,8323,1729405663,-0.040525727,0.002688088,-0.93913512,0.3411387795871778,0.000495043,-0.001413529,0.000499081,,,,,,,,,,,,,,,,,,1729405663,509.0397703418273,73.0165342,33.6978285,13,,,,,,,,,,,,,,,,,,,,,
106,1729405667.521054,107,0,33.69787970797427,73.01650382293268,1.25,,,,,,,,,,,,,,,,,,,,,,,,,,,,,,,,,,,,,,,,,,,,,,,,,,,,,,,,,,,,,,,,,,,,,,,,
107,1729405667.5211682,108,0,33.69787970797427,73.01650382293268,1.25,,,,,,,,,,,,,,,,,,,,,,,,,,,,,,,,,,,,,,,,,,,,,,,,,,,,,,,,,,,,,,,,,,,,,,,,
108,1729405667.5211935,109,0,33.69787970797427,73.01650382293268,1.25,,,,,,,,,,,,,,,,,,,,,,,,,,,,,,,,,,,,,,,,,,,,,,,,,,,,,,,,,,,,,,,,,,,,,,,,
109,1729405667.5213227,110,0,33.69787970797427,73.01650382293268,1.25,,,,,,,,,,,,,,,,,,,,,,,,,,,,,,,,,,,,,,,,,,,,,,,,,,,,,,,,,,,,,,,,,,,,,,,,
110,1729405667.5213602,111,0,33.69787970797427,73.01650382293268,1.25,1729405664.5870025,8337,1729405664,0.181999996,0.01,0,-0.01,,,,,,,,,,,,,,,,,,,,,,,1729405664.377505,8332,1729405664,1026,1026,1026,1026,0,1729405664.7746646,8336,1729405664,0.056672227,0.047855619,229,0,555.2099609,-0.030357562,,,,,,,,,,,,,,,,,,,,,,,,,,
111,1729405667.521383,112,0,33.69787970797427,73.01650382293268,1.25,,,,,,,,,,,,,,,,,,,,,,,,,,,,,,,,,,,,,,,,,,,,,,,,,,,,,,,,,,,,,,,,,,,,,,,,
112,1729405667.5214286,113,0,33.69787970797427,73.01650382293268,1.25,,,,,,,,,,,,,,,,,,,,,,,,,,,,,,,,,,,,,,,,,,,,,,,,,,,,1729405667.8917954,1277,1729405667,33.6978799,73.0165035,556.5399780273438,1.5707963705062866,,,,,,,,,,,,,,
113,1729405667.5215497,114,0,33.69787970797427,73.01650382293268,1.25,,,,,,,,,,,,,,,,,,,,,,,,,,,,,,,,,,,,,,,,,,,,,,,,,,,,,,,,,,,,,,,,,,,,,,,,
114,1729405667.5215778,115,0,33.69787970797427,73.01650382293268,1.25,,,,,,,,,,,,,,,,,,,,,,,,,,,,,,,,,,,,,,,,,,,,,,,,,,,,,,,,,,,,,,,,,,,,,,,,
115,1729405667.521599,116,0,33.69787970797427,73.01650382293268,1.25,,,,,,,,,,,,,,,,,,,,,,,,,,,,,,,,,,,,,,,,,,,,,,,,,,,,,,,,,,,,,,,,,,,,,,,,
116,1729405667.5216208,117,0,33.69787970797427,73.01650382293268,1.25,,,,,,,,,,,,,,,,,,,,,,,,,,,,,,,,,,,,,,,,,,,,,,,,,,,,,,,,,,,,,,,,,,,,,,,,
117,1729405667.5217717,118,0,33.69787970797427,73.01650382293268,1.25,,,,,,,,,,,,,,,,,,,,,,,,,,,,,,,,,,,,,,,,,,,,,,,,,,,,,,,,,,,,,,,,,,,,,,,,
118,1729405667.521917,119,0,33.69787970797427,73.01650382293268,1.25,,,,,,,,,,,,,,,,,,,,,,,,,,,,,,,,,,,,,,,,,,,,,,,,,,,,,,,,,,,,,,,,,,,,,,,,
119,1729405667.5220287,120,0,33.69787970797427,73.01650382293268,1.25,,,,,,,,,,,,,,,,,,,,,,,,,,,,,,,,,,,,,,,,,,,,,,,,,,,,,,,,,,,,,,,,,,,,,,,,
120,1729405667.522061,121,0,33.69787970797427,73.01650382293268,1.25,,,,,,,,,,,,,,,,,,,,,,,,,,,,,,,,,,,,,,,,,,,,,,,,,,,,,,,,,,,,,,,,,,,,,,,,
121,1729405667.5221312,122,0,33.69787970797427,73.01650382293268,1.25,,,,,,,,,,,,,,,,,,,,,,,,,,,,,,,,,,,,,,,,,,,,,,,,,,,,,,,,,,,,,,,,,,,,,,,,
122,1729405667.5223122,123,0,33.69787970797427,73.01650382293268,1.25,,,,,,,,,,,,,,,,,,,,,,,,,,,,,,,,,,,,,,,,,,,,,,,,,,,,,,,,,,,,,,,,,,,,,,,,
123,1729405667.5223534,124,0,33.69787970797427,73.01650382293268,1.25,,,,,,,,,,,,,,,,,,,,,,,,,,,,,,,,,,,,,,,,,,,,,,,,,,,,,,,,,,,,,,,,,,,,,,,,
124,1729405667.5223787,125,0,33.69787970797427,73.01650382293268,1.25,,,,,,,,,,,,,,,,,,,,,,,,,,,,,,,,,,,,,,,,,,,,,,,,,,,,,,,,,,,,,,,,,,,,,,,,
125,1729405667.5223992,126,0,33.69787970797427,73.01650382293268,1.25,,,,,,,,,,,,,,,,,,,,,,,,,,,,,,,,,,,,,,,,,,,,,,,,,,,,,,,,,,,,,,,,,,,,,,,,
126,1729405667.5225055,127,0,33.69787970797427,73.01650382293268,1.25,,,,,,,,1729405664.2702284,8320,1729405663,1.362954788060323,-1.575146612,-0.015,-0.040482438,0.002698648,-0.939139966,0.05,-0.01,0.01,1729405664.2726789,8324,1729405663,-0.040530729,0.002629176,-0.939133234,0.3411438360420328,0.00092429,-0.000999022,-0.000257384,,,,,,,,,,,,,,,,,,1729405663,509.0397696754381,73.0165342,33.6978284,13,,,,,,,,,,,,,,,,,,,,,
127,1729405667.5225303,128,0,33.69787970797427,73.01650382293268,1.25,,,,,,,,,,,,,,,,,,,,,,,,,,,,,,,,,,,,,,,,,,,,,,,,,,,,,,,,,,,,,,,,,,,,,,,,
128,1729405667.5226204,129,0,33.69787970797427,73.01650382293268,1.25,,,,,,,,,,,,,,,,,,,,,,,,,,,,,,,,,,,,,,,,,,,,,,,,,,,,,,,,,,,,,,,,,,,,,,,,
129,1729405667.5226595,130,0,33.69787970797427,73.01650382293268,1.25,,,,,,,,,,,,,,,,,,,,,,,,,,,,,,,,,,,,,,,,,,,,,,,,,,,,,,,,,,,,,,,,,,,,,,,,
130,1729405667.5226936,131,0,33.69787970797427,73.01650382293268,1.25,,,,,,,,,,,,,,,,,,,,,,,,,,,,,,,,,,,,,,,,,,,,,,,,,,,,,,,,,,,,,,,,,,,,,,,,
131,1729405667.522714,132,0,33.69787970797427,73.01650382293268,1.25,,,,,,,,,,,,,,,,,,,,,,,,,,,,,,,,,,,,,,,,,,,,,,,,,,,,,,,,,,,,,,,,,,,,,,,,
132,1729405667.5228572,133,0,33.69787970797427,73.01650382293268,1.25,1729405664.6847112,8338,1729405664,0.181999996,0.01,0,-0.01,,,,,,,,,,,,,,,,,,,,,,,1729405664.4777756,8333,1729405664,1057,1057,1057,1057,0,1729405664.8746655,8337,1729405664,0.04295053,0.036284242,229,0.039999999,555.2099609,-0.022982616,,,,,,,,,,,,,,,,,,,,,,,,,,
133,1729405668,134,0,33.69787970797427,73.01650382293268,1.25,,,,,,,,,,,,,,,,,,,,,,,,,,,,,,,,,,,,,,,,,,,,,,,,,,,,,,,,,,,,,,,,,,,,,,,,
134,1729405667.5229998,135,0,33.69787970797427,73.01650382293268,1.25,,,,,,,,,,,,,,,,,,,,,,,,,,,,,,,,,,,,,,,,,,,,,,,,,,,,,,,,,,,,,,,,,,,,,,,,
135,1729405667.523022,136,0,33.69787970797427,73.01650382293268,1.25,,,,,,,,,,,,,,,,,,,,,,,,,,,,,,,,,,,,,,,,,,,,,,,,,,,,,,,,,,,,,,,,,,,,,,,,
136,1729405667.5231147,140,0,33.697879797857766,73.01650375081326,1.25,,,,,,,,,,,,,,,,,,,,,,,,,,,,,,,,,,,,,,,,,,,,,,,,,,,,,,,,,,,,,,,,,,,,,,,,
137,1729405667.523147,141,0,33.697879797857766,73.01650375081326,1.25,,,,,,,,,,,,,,,,,,,,,,,,,,,,,,,,,,,,,,,,,,,,,,,,,,,,,,,,,,,,,,,,,,,,,,,,
138,1729405667.523171,142,0,33.697879797857766,73.01650375081326,1.25,,,,,,,,,,,,,,,,,,,,,,,,,,,,,,,,,,,,,,,,,,,,,,,,,,,,,,,,,,,,,,,,,,,,,,,,
139,1729405667.5231924,143,0,33.697879797857766,73.01650375081326,1.25,,,,,,,,,,,,,,,,,,,,,,,,,,,,,,,,,,,,,,,,,,,,,,,,,,,,,,,,,,,,,,,,,,,,,,,,
140,1729405667.5232902,144,0,33.697879797857766,73.01650375081326,1.25,,,,,,,,,,,,,,,,,,,,,,,,,,,,,,,,,,,,,,,,,,,,,,,,,,,,1729405667.9916766,1278,1729405667,33.6978803,73.0165034,556.5399780273438,1.5707963705062866,,,,,,,,,,,,,,
141,1729405667.523403,145,0,33.697879797857766,73.01650375081326,1.25,,,,,,,,,,,,,,,,,,,,,,,,,,,,,,,,,,,,,,,,,,,,,,,,,,,,,,,,,,,,,,,,,,,,,,,,
142,1729405667.523426,146,0,33.697879797857766,73.01650375081326,1.25,,,,,,,,,,,,,,,,,,,,,,,,,,,,,,,,,,,,,,,,,,,,,,,,,,,,,,,,,,,,,,,,,,,,,,,,
143,1729405667.523445,147,0,33.697879797857766,73.01650375081326,1.25,,,,,,,,,,,,,,,,,,,,,,,,,,,,,,,,,,,,,,,,,,,,,,,,,,,,,,,,,,,,,,,,,,,,,,,,
144,1729405667.523568,148,0,33.697879797857766,73.01650375081326,1.25,,,,,,,,,,,,,,,,,,,,,,,,,,,,,,,,,,,,,,,,,,,,,,,,,,,,,,,,,,,,,,,,,,,,,,,,
145,1729405667.5236864,149,0,33.697879797857766,73.01650375081326,1.25,,,,,,,,,,,,,,,,,,,,,,,,,,,,,,,,,,,,,,,,,,,,,,,,,,,,,,,,,,,,,,,,,,,,,,,,
146,1729405667.5237112,150,0,33.697879797857766,73.01650375081326,1.25,,,,,,,,,,,,,,,,,,,,,,,,,,,,,,,,,,,,,,,,,,,,,,,,,,,,,,,,,,,,,,,,,,,,,,,,
147,1729405667.523729,151,0,33.697879797857766,73.01650375081326,1.25,,,,,,,,1729405664.2711878,8321,1729405663,1.3629547897431356,-1.586239195,-0.017,-0.040493304,0.002712251,-0.939134883,0.05,-0.01,0.01,1729405664.274328,8325,1729405663,-0.040526001,0.002569944,-0.939131253,0.3411503010109766,-0.000230705,-0.000685454,-0.000199308,,,,,,,,,,,,,,,,,,1729405663,509.0297696754381,73.0165342,33.6978284,13,,,,,,,,,,,,,,,,,,,,,
148,1729405667.523862,152,0,33.697879797857766,73.01650375081326,1.25,,,,,,,,,,,,,,,,,,,,,,,,,,,,,,,,,,,,,,,,,,,,,,,,,,,,,,,,,,,,,,,,,,,,,,,,
149,1729405667.5238874,153,0,33.697879797857766,73.01650375081326,1.25,,,,,,,,,,,,,,,,,,,,,,,,,,,,,,,,,,,,,,,,,,,,,,,,,,,,,,,,,,,,,,,,,,,,,,,,
150,1729405667.523908,154,0,33.697879797857766,73.01650375081326,1.25,,,,,,,,,,,,,,,,,,,,,,,,,,,,,,,,,,,,,,,,,,,,,,,,,,,,,,,,,,,,,,,,,,,,,,,,
151,1729405667.524073,155,0,33.697879797857766,73.01650375081326,1.25,,,,,,,,,,,,,,,,,,,,,,,,,,,,,,,,,,,,,,,,,,,,,,,,,,,,,,,,,,,,,,,,,,,,,,,,
152,1729405667.5241044,156,0,33.697879797857766,73.01650375081326,1.25,,,,,,,,,,,,,,,,,,,,,,,,,,,,,,,,,,,,,,,,,,,,,,,,,,,,,,,,,,,,,,,,,,,,,,,,
153,1729405667.5241413,157,0,33.697879797857766,73.01650375081326,1.25,,,,,,,,,,,,,,,,,,,,,,,,,,,,,,,,,,,,,,,,,,,,,,,,,,,,,,,,,,,,,,,,,,,,,,,,
154,1729405667.5242636,158,0,33.697879797857766,73.01650375081326,1.25,1729405664.784929,8339,1729405664,0.1720000058412552,0.01,0,-0.01,,,,,,,,,,,,,,,,,,,,,,,1729405664.5788343,8334,1729405664,1089,1089,1089,1089,0,1729405664.9756322,8338,1729405664,0.047312956,0.045436002,230,0.090000004,555.2099609,0.013194137,,,,,,,,,,,,,,,,,,,,,,,,,,
155,1729405667.5243776,159,0,33.697879797857766,73.01650375081326,1.25,,,,,,,,,,,,,,,,,,,,,,,,,,,,,,,,,,,,,,,,,,,,,,,,,,,,,,,,,,,,,,,,,,,,,,,,
156,1729405667.5244112,160,0,33.697879797857766,73.01650375081326,1.25,,,,,,,,,,,,,,,,,,,,,,,,,,,,,,,,,,,,,,,,,,,,,,,,,,,,,,,,,,,,,,,,,,,,,,,,
157,1729405667.524438,161,0,33.697879797857766,73.01650375081326,1.25,,,,,,,,,,,,,,,,,,,,,,,,,,,,,,,,,,,,,,,,,,,,,,,,,,,,,,,,,,,,,,,,,,,,,,,,
158,1729405667.5245068,162,0,33.697879797857766,73.01650375081326,1.25,,,,,,,,,,,,,,,,,,,,,,,,,,,,,,,,,,,,,,,,,,,,,,,,,,,,,,,,,,,,,,,,,,,,,,,,
159,1729405667.5245316,163,0,33.697879797857766,73.01650375081326,1.25,,,,,,,,,,,,,,,,,,,,,,,,,,,,,,,,,,,,,,,,,,,,,,,,,,,,,,,,,,,,,,,,,,,,,,,,
160,1729405667.5246158,164,0,33.697879797857766,73.01650375081326,1.25,,,,,,,,,,,,,,,,,,,,,,,,,,,,,,,,,,,,,,,,,,,,,,,,,,,,,,,,,,,,,,,,,,,,,,,,
161,1729405667.5246396,165,0,33.697879797857766,73.01650375081326,1.25,,,,,,,,,,,,,,,,,,,,,,,,,,,,,,,,,,,,,,,,,,,,,,,,,,,,,,,,,,,,,,,,,,,,,,,,
162,1729405667.5246618,166,0,33.697879797857766,73.01650375081326,1.25,,,,,,,,,,,,,,,,,,,,,,,,,,,,,,,,,,,,,,,,,,,,,,,,,,,,,,,,,,,,,,,,,,,,,,,,
163,1729405667.524682,167,0,33.697879797857766,73.01650375081326,1.25,,,,,,,,,,,,,,,,,,,,,,,,,,,,,,,,,,,,,,,,,,,,,,,,,,,,,,,,,,,,,,,,,,,,,,,,
164,1729405667.5248077,168,0,33.697879797857766,73.01650375081326,1.25,,,,,,,,,,,,,,,,,,,,,,,,,,,,,,,,,,,,,,,,,,,,,,,,,,,,,,,,,,,,,,,,,,,,,,,,
165,1729405667.5249207,169,0,33.697879797857766,73.01650375081326,1.25,,,,,,,,,,,,,,,,,,,,,,,,,,,,,,,,,,,,,,,,,,,,,,,,,,,,,,,,,,,,,,,,,,,,,,,,
166,1729405667.5249856,170,0,33.697879797857766,73.01650375081326,1.25,,,,,,,,,,,,,,,,,,,,,,,,,,,,,,,,,,,,,,,,,,,,,,,,,,,,,,,,,,,,,,,,,,,,,,,,
167,1729405667.5250084,171,0,33.697879797857766,73.01650375081326,1.25,,,,,,,,,,,,,,,,,,,,,,,,,,,,,,,,,,,,,,,,,,,,,,,,,,,,,,,,,,,,,,,,,,,,,,,,
168,1729405667.5250378,172,0,33.697879797857766,73.01650375081326,1.25,,,,,,,,1729405664.2743108,8322,1729405663,1.3629547876322148,-1.586239192,-0.02,-0.04052505,0.002736478,-0.93913485,0.05,-0.01,0.01,1729405664.2744372,8326,1729405663,-0.040526611,0.002520543,-0.939121189,0.3411783010237759,-0.000918505,-0.001159865,-0.000492701,,,,,,,,,,,,,,,,,,1729405663,509.0297696754381,73.0165342,33.6978284,13,1729405668.0832307,1279,1729405668,33.6978805,73.0165033,556.5700073242188,1.5707963705062866,,,,,,,,,,,,,,
169,1729405667.5251796,173,0,33.697879797857766,73.01650375081326,1.25,,,,,,,,,,,,,,,,,,,,,,,,,,,,,,,,,,,,,,,,,,,,,,,,,,,,,,,,,,,,,,,,,,,,,,,,
170,1729405667.525216,174,0,33.697879797857766,73.01650375081326,1.25,,,,,,,,,,,,,,,,,,,,,,,,,,,,,,,,,,,,,,,,,,,,,,,,,,,,,,,,,,,,,,,,,,,,,,,,
171,1729405667.5252516,175,0,33.697879797857766,73.01650375081326,1.25,,,,,,,,,,,,,,,,,,,,,,,,,,,,,,,,,,,,,,,,,,,,,,,,,,,,,,,,,,,,,,,,,,,,,,,,
172,1729405667.5252728,176,0,33.697879797857766,73.01650375081326,1.25,,,,,,,,,,,,,,,,,,,,,,,,,,,,,,,,,,,,,,,,,,,,,,,,,,,,,,,,,,,,,,,,,,,,,,,,
173,1729405667.525308,177,0,33.697879797857766,73.01650375081326,1.25,,,,,,,,,,,,,,,,,,,,,,,,,,,,,,,,,,,,,,,,,,,,,,,,,,,,,,,,,,,,,,,,,,,,,,,,
174,1729405667.5255342,178,0,33.697879797857766,73.01650375081326,1.25,,,,,,,,,,,,,,,,,,,,,,,,,,,,,,,,,,,,,,,,,,,,,,,,,,,,,,,,,,,,,,,,,,,,,,,,
175,1729405667.5255642,179,0,33.697879797857766,73.01650375081326,1.25,,,,,,,,,,,,,,,,,,,,,,,,,,,,,,,,,,,,,,,,,,,,,,,,,,,,,,,,,,,,,,,,,,,,,,,,
176,1729405667.5256002,180,0,33.697879797857766,73.01650375081326,1.25,1729405664.8850698,8340,1729405664,0.1689999997615814,0.01,0,-0.01,,,,,,,,,,,,,,,,,,,,,,,1729405664.6745758,8335,1729405664,1105,1105,1105,1105,0,1729405665.0740905,8339,1729405665,0.041403696,0.035654094,230,0.1299999952316284,555.2099609,0.021048786,,,,,,,,,,,,,,,,,,,,,,,,,,
177,1729405667.5256355,181,0,33.697879797857766,73.01650375081326,1.25,,,,,,,,,,,,,,,,,,,,,,,,,,,,,,,,,,,,,,,,,,,,,,,,,,,,,,,,,,,,,,,,,,,,,,,,
178,1729405667.5257037,182,0,33.697879797857766,73.01650375081326,1.25,,,,,,,,,,,,,,,,,,,,,,,,,,,,,,,,,,,,,,,,,,,,,,,,,,,,,,,,,,,,,,,,,,,,,,,,
179,1729405667.5257435,183,0,33.697879797857766,73.01650375081326,1.25,,,,,,,,,,,,,,,,,,,,,,,,,,,,,,,,,,,,,,,,,,,,,,,,,,,,,,,,,,,,,,,,,,,,,,,,
180,1729405667.5257702,184,0,33.697879797857766,73.01650375081326,1.25,,,,,,,,,,,,,,,,,,,,,,,,,,,,,,,,,,,,,,,,,,,,,,,,,,,,,,,,,,,,,,,,,,,,,,,,
181,1729405667.525791,185,0,33.697879797857766,73.01650375081326,1.25,,,,,,,,,,,,,,,,,,,,,,,,,,,,,,,,,,,,,,,,,,,,,,,,,,,,,,,,,,,,,,,,,,,,,,,,
182,1729405667.5259092,186,0,33.697879797857766,73.01650375081326,1.25,,,,,,,,,,,,,,,,,,,,,,,,,,,,,,,,,,,,,,,,,,,,,,,,,,,,,,,,,,,,,,,,,,,,,,,,
183,1729405667.5259418,187,0,33.697879797857766,73.01650375081326,1.25,,,,,,,,,,,,,,,,,,,,,,,,,,,,,,,,,,,,,,,,,,,,,,,,,,,,,,,,,,,,,,,,,,,,,,,,
184,1729405667.5262237,188,0,33.697879797857766,73.01650375081326,1.25,,,,,,,,,,,,,,,,,,,,,,,,,,,,,,,,,,,,,,,,,,,,,,,,,,,,,,,,,,,,,,,,,,,,,,,,
185,1729405667.5262568,189,0,33.697879797857766,73.01650375081326,1.25,,,,,,,,,,,,,,,,,,,,,,,,,,,,,,,,,,,,,,,,,,,,,,,,,,,,,,,,,,,,,,,,,,,,,,,,
186,1729405667.5262873,190,0,33.697879797857766,73.01650375081326,1.25,,,,,,,,,,,,,,,,,,,,,,,,,,,,,,,,,,,,,,,,,,,,,,,,,,,,,,,,,,,,,,,,,,,,,,,,
187,1729405667.5264208,191,0,33.697879797857766,73.01650375081326,1.25,,,,,,,,,,,,,,,,,,,,,,,,,,,,,,,,,,,,,,,,,,,,,,,,,,,,,,,,,,,,,,,,,,,,,,,,
188,1729405667.5264452,192,0,33.697879797857766,73.01650375081326,1.25,,,,,,,,,,,,,,,,,,,,,,,,,,,,,,,,,,,,,,,,,,,,,,,,,,,,,,,,,,,,,,,,,,,,,,,,
189,1729405667.5264714,193,0,33.697879797857766,73.01650375081326,1.25,,,,,,,,1729405664.2795367,8323,1729405663,1.3629547876322148,-1.586239192,-0.026,-0.040525727,0.002688088,-0.93913512,0.05,-0.01,0.01,1729405664.2762733,8327,1729405663,-0.040527817,0.002533995,-0.939104885,0.3412229341690189,-0.001644009,8.820719085633737e-05,-0.00139906,,,,,,,,,,,,,,,,,,1729405663,509.0197696754381,73.0165342,33.6978284,13,,,,,,,,,,,,,,,,,,,,1729405673.623851,12.4
190,1729405667.5266223,194,0,33.697879797857766,73.01650375081326,1.25,,,,,,,,,,,,,,,,,,,,,,,,,,,,,,,,,,,,,,,,,,,,,,,,,,,,,,,,,,,,,,,,,,,,,,,,
191,1729405667.5266488,195,0,33.697879797857766,73.01650375081326,1.25,,,,,,,,,,,,,,,,,,,,,,,,,,,,,,,,,,,,,,,,,,,,,,,,,,,,,,,,,,,,,,,,,,,,,,,,
192,1729405667.5266807,196,0,33.697879797857766,73.01650375081326,1.25,,,,,,,,,,,,,,,,,,,,,,,,,,,,,,,,,,,,,,,,,,,,,,,,,,,,,,,,,,,,,,,,,,,,,,,,
193,1729405667.5267012,197,0,33.697879797857766,73.01650375081326,1.25,,,,,,,,,,,,,,,,,,,,,,,,,,,,,,,,,,,,,,,,,,,,,,,,,,,,,,,,,,,,,,,,,,,,,,,,
194,1729405667.526833,198,0,33.697879797857766,73.01650375081326,1.25,,,,,,,,,,,,,,,,,,,,,,,,,,,,,,,,,,,,,,,,,,,,,,,,,,,,,,,,,,,,,,,,,,,,,,,,
195,1729405667.5268643,199,0,33.697879797857766,73.01650375081326,1.25,,,,,,,,,,,,,,,,,,,,,,,,,,,,,,,,,,,,,,,,,,,,,,,,,,,,,,,,,,,,,,,,,,,,,,,,
196,1729405667.526888,200,0,33.697879797857766,73.01650375081326,1.25,,,,,,,,,,,,,,,,,,,,,,,,,,,,,,,,,,,,,,,,,,,,,,,,,,,,1729405668.1925523,1280,1729405668,33.6978805,73.0165033,556.5700073242188,1.5707963705062866,,,,,,,,,,,,,,
197,1729405667.526992,201,0,33.697879797857766,73.01650375081326,1.25,,,,,,,,,,,,,,,,,,,,,,,,,,,,,,,,,,,,,,,,,,,,,,,,,,,,,,,,,,,,,,,,,,,,,,,,
198,1729405667.5270174,202,0,33.697879797857766,73.01650375081326,1.25,1729405664.986267,8341,1729405664,0.123999998,0.01,0,-0.01,,,,,,,,,,,,,,,,,,,,,,,1729405664.7745106,8336,1729405664,1136,1136,1136,1136,0,1729405665.1743183,8340,1729405665,0.059817251,0.033599194,230,0.1800000071525573,555.2099609,-0.049489371,,,,,,,,,,,,,,,,,,,,,,,,,,
199,1729405667.527038,203,0,33.697879797857766,73.01650375081326,1.25,,,,,,,,,,,,,,,,,,,,,,,,,,,,,,,,,,,,,,,,,,,,,,,,,,,,,,,,,,,,,,,,,,,,,,,,
200,1729405667.5271592,204,0,33.697879797857766,73.01650375081326,1.25,,,,,,,,,,,,,,,,,,,,,,,,,,,,,,,,,,,,,,,,,,,,,,,,,,,,,,,,,,,,,,,,,,,,,,,,
201,1729405667.5271907,205,0,33.697879797857766,73.01650375081326,1.25,,,,,,,,,,,,,,,,,,,,,,,,,,,,,,,,,,,,,,,,,,,,,,,,,,,,,,,,,,,,,,,,,,,,,,,,
202,1729405667.5272372,206,0,33.697879797857766,73.01650375081326,1.25,,,,,,,,,,,,,,,,,,,,,,,,,,,,,,,,,,,,,,,,,,,,,,,,,,,,,,,,,,,,,,,,,,,,,,,,
203,1729405667.527357,207,0,33.697879797857766,73.01650375081326,1.25,,,,,,,,,,,,,,,,,,,,,,,,,,,,,,,,,,,,,,,,,,,,,,,,,,,,,,,,,,,,,,,,,,,,,,,,
204,1729405667.527388,208,0,33.697879797857766,73.01650375081326,1.25,,,,,,,,,,,,,,,,,,,,,,,,,,,,,,,,,,,,,,,,,,,,,,,,,,,,,,,,,,,,,,,,,,,,,,,,
205,1729405667.5274117,209,0,33.697879797857766,73.01650375081326,1.25,,,,,,,,,,,,,,,,,,,,,,,,,,,,,,,,,,,,,,,,,,,,,,,,,,,,,,,,,,,,,,,,,,,,,,,,
206,1729405667.527501,210,0,33.697879797857766,73.01650375081326,1.25,,,,,,,,,,,,,,,,,,,,,,,,,,,,,,,,,,,,,,,,,,,,,,,,,,,,,,,,,,,1729405664.3427808,923,1,1,1,1,5,,,,,,,
207,1729405667.5275228,211,0,33.697879797857766,73.01650375081326,1.25,,,,,,,,,,,,,,,,,,,,,,,,,,,,,,,,,,,,,,,,,,,,,,,,,,,,,,,,,,,,,,,,,,,,,,,,
208,1729405667.5276692,212,0,33.697879797857766,73.01650375081326,1.25,,,,,,,,,,,,,,,,,,,,,,,,,,,,,,,,,,,,,,,,,,,,,,,,,,,,,,,,,,,,,,,,,,,,,,,,
209,1729405667.527696,213,0,33.697879797857766,73.01650375081326,1.25,,,,,,,,,,,,,,,,,,,,,,,,,,,,,,,,,,,,,,,,,,,,,,,,,,,,,,,,,,,,,,,,,,,,,,,,
210,1729405667.527727,214,0,33.697879797857766,73.01650375081326,1.25,,,,,,,,1729405664.2795982,8324,1729405663,1.3629547854719353,-1.58623919,-0.03,-0.040530729,0.002629176,-0.939133234,0.05,0,0.01,1729405664.2762926,8328,1729405663,-0.040514358,0.002557924,-0.939086841,0.3412740081572229,-0.000899559,-0.000795285,-0.000813339,,,,,,,,,,,,,,,,,,1729405663,509.01977034182727,73.0165342,33.6978285,13,,,,,,,,,,,,,,,,,,,,,
211,1729405667.5277565,215,0,33.697879797857766,73.01650375081326,1.25,,,,,,,,,,,,,,,,,,,,,,,,,,,,,,,,,,,,,,,,,,,,,,,,,,,,,,,,,,,,,,,,,,,,,,,,
212,1729405667.5278635,216,0,33.697879797857766,73.01650375081326,1.25,,,,,,,,,,,,,,,,,,,,,,,,,,,,,,,,,,,,,,,,,,,,,,,,,,,,,,,,,,,,,,,,,,,,,,,,
213,1729405667.5279536,217,0,33.697879797857766,73.01650375081326,1.25,,,,,,,,,,,,,,,,,,,,,,,,,,,,,,,,,,,,,,,,,,,,,,,,,,,,,,,,,,,,,,,,,,,,,,,,
214,1729405667.5279806,218,0,33.697879797857766,73.01650375081326,1.25,,,,,,,,,,,,,,,,,,,,,,,,,,,,,,,,,,,,,,,,,,,,,,,,,,,,,,,,,,,,,,,,,,,,,,,,
215,1729405667.5280883,219,0,33.697879797857766,73.01650375081326,1.25,,,,,,,,,,,,,,,,,,,,,,,,,,,,,,,,,,,,,,,,,,,,,,,,,,,,,,,,,,,,,,,,,,,,,,,,
216,1729405667.5281122,220,0,33.697879797857766,73.01650375081326,1.25,,,,,,,,,,,,,,,,,,,,,,,,,,,,,,,,,,,,,,,,,,,,,,,,,,,,,,,,,,,,,,,,,,,,,,,,
217,1729405667.528221,221,0,33.697879797857766,73.01650375081326,1.25,,,,,,,,,,,,,,,,,,,,,,,,,,,,,,,,,,,,,,,,,,,,,,,,,,,,,,,,,,,,,,,,,,,,,,,,
218,1729405667.528246,222,0,33.697879797857766,73.01650375081326,1.25,,,,,,,,,,,,,,,,,,,,,,,,,,,,,,,,,,,,,,,,,,,,,,,,,,,,,,,,,,,,,,,,,,,,,,,,
219,1729405667.528352,223,0,33.697879797857766,73.01650375081326,1.25,,,,,,,,,,,,,,,,,,,,,,,,,,,,,,,,,,,,,,,,,,,,,,,,,,,,,,,,,,,,,,,,,,,,,,,,
220,1729405667.528537,224,0,33.697879797857766,73.01650375081326,1.25,1729405665.085359,8342,1729405665,0.1070000007748603,0.01,0,-0.01,,,,,,,,,,,,,,,,,,,,,,,1729405664.8746352,8337,1729405664,1150,1411,1398,1181,0,1729405665.2736218,8341,1729405665,0.047214206,0.043439902,230,0.2199999988079071,555.2099609,0.018497448,,,,,,,,,,,,,,,,,,,,,,,,,,
221,1729405667.528758,225,0,33.697879797857766,73.01650375081326,1.25,,,,,,,,,,,,,,,,,,,,,,,,,,,,,,,,,,,,,,,,,,,,,,,,,,,,,,,,,,,,,,,,,,,,,,,,
222,1729405667.5287929,226,0,33.697879797857766,73.01650375081326,1.25,,,,,,,,,,,,,,,,,,,,,,,,,,,,,,,,,,,,,,,,,,,,,,,,,,,,,,,,,,,,,,,,,,,,,,,,
223,1729405667.528825,227,0,33.697879797857766,73.01650375081326,1.25,,,,,,,,,,,,,,,,,,,,,,,,,,,,,,,,,,,,,,,,,,,,,,,,,,,,,,,,,,,,,,,,,,,,,,,,
224,1729405668,228,0,33.697879797857766,73.01650375081326,1.25,,,,,,,,,,,,,,,,,,,,,,,,,,,,,,,,,,,,,,,,,,,,,,,,,,,,1729405668.2849991,1281,1729405668,33.6978809,73.016503,556.6099853515625,1.5707963705062866,,,,,,,,,,,,,,
225,1729405667.5288806,229,0,33.697879797857766,73.01650375081326,1.25,,,,,,,,,,,,,,,,,,,,,,,,,,,,,,,,,,,,,,,,,,,,,,,,,,,,,,,,,,,,,,,,,,,,,,,,
226,1729405667.5290153,230,0,33.697879797857766,73.01650375081326,1.25,,,,,,,,,,,,,,,,,,,,,,,,,,,,,,,,,,,,,,,,,,,,,,,,,,,,,,,,,,,,,,,,,,,,,,,,
227,1729405667.5290508,231,0,33.697879797857766,73.01650375081326,1.25,,,,,,,,,,,,,,,,,,,,,,,,,,,,,,,,,,,,,,,,,,,,,,,,,,,,,,,,,,,,,,,,,,,,,,,,
228,1729405667.5290709,232,0,33.697879797857766,73.01650375081326,1.25,,,,,,,,,,,,,,,,,,,,,,,,,,,,,,,,,,,,,,,,,,,,,,,,,,,,,,,,,,,,,,,,,,,,,,,,
229,1729405667.529099,233,0,33.697879797857766,73.01650375081326,1.25,,,,,,,,,,,,,,,,,,,,,,,,,,,,,,,,,,,,,,,,,,,,,,,,,,,,,,,,,,,,,,,,,,,,,,,,
230,1729405667.5292528,234,0,33.697879797857766,73.01650375081326,1.25,,,,,,,,,,,,,,,,,,,,,,,,,,,,,,,,,,,,,,,,,,,,,,,,,,,,,,,,,,,,,,,,,,,,,,,,
231,1729405667.5293243,235,0,33.697879797857766,73.01650375081326,1.25,,,,,,,,1729405664.2796822,8325,1729405663,1.362954784061158,-1.575146607,-0.036,-0.040526001,0.002569944,-0.939131253,0.05,0,0.01,1729405664.2767062,8329,1729405664,-0.040510323,0.002587711,-0.939066131,0.3413312447517714,-0.000270772,0.000352217,-0.000106401,,,,,,,,,,,,,,,,,,1729405663,509.0097703418273,73.0165342,33.6978285,13,,,,,,,,,,,,,,,,,,,,,
232,1729405667.529352,236,0,33.697879797857766,73.01650375081326,1.25,,,,,,,,,,,,,,,,,,,,,,,,,,,,,,,,,,,,,,,,,,,,,,,,,,,,,,,,,,,,,,,,,,,,,,,,
233,1729405667.5293727,237,0,33.697879797857766,73.01650375081326,1.25,,,,,,,,,,,,,,,,,,,,,,,,,,,,,,,,,,,,,,,,,,,,,,,,,,,,,,,,,,,,,,,,,,,,,,,,
234,1729405667.529392,238,0,33.697879797857766,73.01650375081326,1.25,,,,,,,,,,,,,,,,,,,,,,,,,,,,,,,,,,,,,,,,,,,,,,,,,,,,,,,,,,,,,,,,,,,,,,,,
235,1729405667.5295565,239,0,33.697879797857766,73.01650375081326,1.25,,,,,,,,,,,,,,,,,,,,,,,,,,,,,,,,,,,,,,,,,,,,,,,,,,,,,,,,,,,,,,,,,,,,,,,,
236,1729405667.5295784,240,0,33.697879797857766,73.01650375081326,1.25,,,,,,,,,,,,,,,,,,,,,,,,,,,,,,,,,,,,,,,,,,,,,,,,,,,,,,,,,,,,,,,,,,,,,,,,
237,1729405667.5296805,241,0,33.697879797857766,73.01650375081326,1.25,,,,,,,,,,,,,,,,,,,,,,,,,,,,,,,,,,,,,,,,,,,,,,,,,,,,,,,,,,,,,,,,,,,,,,,,
238,1729405667.5299275,242,0,33.697879797857766,73.01650375081326,1.25,,,,,,,,,,,,,,,,,,,,,,,,,,,,,,,,,,,,,,,,,,,,,,,,,,,,,,,,,,,,,,,,,,,,,,,,
239,1729405667.530027,243,0,33.697879797857766,73.01650375081326,1.25,,,,,,,,,,,,,,,,,,,,,,,,,,,,,,,,,,,,,,,,,,,,,,,,,,,,,,,,,,,,,,,,,,,,,,,,
240,1729405667.5300615,244,0,33.697879797857766,73.01650375081326,1.25,,,,,,,,,,,,,,,,,,,,,,,,,,,,,,,,,,,,,,,,,,,,,,,,,,,,,,,,,,,,,,,,,,,,,,,,
241,1729405667.5300913,245,0,33.697879797857766,73.01650375081326,1.25,,,,,,,,,,,,,,,,,,,,,,,,,,,,,,,,,,,,,,,,,,,,,,,,,,,,,,,,,,,,,,,,,,,,,,,,
242,1729405667.5301154,246,0,33.697879797857766,73.01650375081326,1.25,1729405665.1859484,8343,1729405665,0.097999997,0.01,0,-0.01,,,,,,,,,,,,,,,,,,,,,,,1729405664.9758067,8338,1729405664,1425,1322,1376,1381,0,1729405665.3747036,8342,1729405665,0.097726509,0.050005086,231,0.25,555.2199707,0.083964042,,,,,,,,,,,,,,,,,,,,,,,,,,
243,1729405667.5301466,247,0,33.697879797857766,73.01650375081326,1.25,,,,,,,,,,,,,,,,,,,,,,,,,,,,,,,,,,,,,,,,,,,,,,,,,,,,,,,,,,,,,,,,,,,,,,,,
244,1729405667.530266,248,0,33.697879797857766,73.01650375081326,1.25,,,,,,,,,,,,,,,,,,,,,,,,,,,,,,,,,,,,,,,,,,,,,,,,,,,,,,,,,,,,,,,,,,,,,,,,
245,1729405667.5302882,249,0,33.697879797857766,73.01650375081326,1.25,,,,,,,,,,,,,,,,,,,,,,,,,,,,,,,,,,,,,,,,,,,,,,,,,,,,,,,,,,,,,,,,,,,,,,,,
246,1729405667.530387,250,0,33.697879797857766,73.01650375081326,1.25,,,,,,,,,,,,,,,,,,,,,,,,,,,,,,,,,,,,,,,,,,,,,,,,,,,,,,,,,,,,,,,,,,,,,,,,
247,1729405667.5304115,251,0,33.697879797857766,73.01650375081326,1.25,,,,,,,,,,,,,,,,,,,,,,,,,,,,,,,,,,,,,,,,,,,,,,,,,,,,,,,,,,,,,,,,,,,,,,,,
248,1729405667.5305002,252,0,33.697879797857766,73.01650375081326,1.25,,,,,,,,,,,,,,,,,,,,,,,,,,,,,,,,,,,,,,,,,,,,,,,,,,,,,,,,,,,,,,,,,,,,,,,,
249,1729405667.5305252,253,0,33.697879797857766,73.01650375081326,1.25,,,,,,,,,,,,,,,,,,,,,,,,,,,,,,,,,,,,,,,,,,,,,,,,,,,,,,,,,,,,,,,,,,,,,,,,
250,1729405667.5305438,254,0,33.697879797857766,73.01650375081326,1.25,,,,,,,,,,,,,,,,,,,,,,,,,,,,,,,,,,,,,,,,,,,,,,,,,,,,,,,,,,,,,,,,,,,,,,,,
251,1729405667.530655,255,0,33.697879797857766,73.01650375081326,1.25,,,,,,,,,,,,,,,,,,,,,,,,,,,,,,,,,,,,,,,,,,,,,,,,,,,,,,,,,,,,,,,,,,,,,,,,
252,1729405667.5306904,256,0,33.697879797857766,73.01650375081326,1.25,,,,,,,,1729405664.2798083,8326,1729405663,1.3629547819502372,-1.575146605,-0.04,-0.040526611,0.002520543,-0.939121189,0.05,0,0.01,1729405664.2767656,8330,1729405664,-0.040542634,0.002593551,-0.939055418,0.3413568369875072,4.6166242100298405e-06,-0.001021199,0.000733091,,,,,,,,,,,,,,,,,,1729405663,509.0097703418273,73.0165342,33.6978285,13,1729405668.3866358,1282,1729405668,33.6978809,73.016503,556.6099853515625,1.5707963705062866,,,,,,,,,,,,,,
253,1729405667.530717,257,0,33.697879797857766,73.01650375081326,1.25,,,,,,,,,,,,,,,,,,,,,,,,,,,,,,,,,,,,,,,,,,,,,,,,,,,,,,,,,,,,,,,,,,,,,,,,
254,1729405667.5307355,258,0,33.697879797857766,73.01650375081326,1.25,,,,,,,,,,,,,,,,,,,,,,,,,,,,,,,,,,,,,,,,,,,,,,,,,,,,,,,,,,,,,,,,,,,,,,,,
255,1729405667.5308614,259,0,33.697879797857766,73.01650375081326,1.25,,,,,,,,,,,,,,,,,,,,,,,,,,,,,,,,,,,,,,,,,,,,,,,,,,,,,,,,,,,,,,,,,,,,,,,,
256,1729405667.5308857,260,0,33.697879797857766,73.01650375081326,1.25,,,,,,,,,,,,,,,,,,,,,,,,,,,,,,,,,,,,,,,,,,,,,,,,,,,,,,,,,,,,,,,,,,,,,,,,
257,1729405667.5309873,261,0,33.697879797857766,73.01650375081326,1.25,,,,,,,,,,,,,,,,,,,,,,,,,,,,,,,,,,,,,,,,,,,,,,,,,,,,,,,,,,,,,,,,,,,,,,,,
258,1729405667.5310173,262,0,33.697879797857766,73.01650375081326,1.25,,,,,,,,,,,,,,,,,,,,,,,,,,,,,,,,,,,,,,,,,,,,,,,,,,,,,,,,,,,,,,,,,,,,,,,,
259,1729405667.5310397,263,0,33.697879797857766,73.01650375081326,1.25,,,,,,,,,,,,,,,,,,,,,,,,,,,,,,,,,,,,,,,,,,,,,,,,,,,,,,,,,,,,,,,,,,,,,,,,
260,1729405667.5310602,264,0,33.697879797857766,73.01650375081326,1.25,,,,,,,,,,,,,,,,,,,,,,,,,,,,,,,,,,,,,,,,,,,,,,,,,,,,,,,,,,,,,,,,,,,,,,,,
261,1729405668,265,0,33.697879797857766,73.01650375081326,1.25,,,,,,,,,,,,,,,,,,,,,,,,,,,,,,,,,,,,,,,,,,,,,,,,,,,,,,,,,,,,,,,,,,,,,,,,
262,1729405667.5311935,266,0,33.697879797857766,73.01650375081326,1.25,,,,,,,,,,,,,,,,,,,,,,,,,,,,,,,,,,,,,,,,,,,,,,,,,,,,,,,,,,,,,,,,,,,,,,,,
263,1729405667.5312142,267,0,33.697879797857766,73.01650375081326,1.25,,,,,,,,,,,,,,,,,,,,,,,,,,,,,,,,,,,,,,,,,,,,,,,,,,,,,,,,,,,,,,,,,,,,,,,,
264,1729405667.531327,268,0,33.697879797857766,73.01650375081326,1.25,1729405665.286102,8344,1729405665,0.083999999,0.01,0,-0.01,,,,,,,,,,,,,,,,,,,,,,,1729405665.0742466,8339,1729405665,1364,1552,1317,1595,0,1729405665.4755664,8343,1729405665,0.2808529138565063,0.065404706,231,0.2599999904632568,555.25,0.2731310725212097,,,,,,,,,,,,,,,,,,,,,,,,,,
265,1729405667.5313509,269,0,33.697879797857766,73.01650375081326,1.25,,,,,,,,,,,,,,,,,,,,,,,,,,,,,,,,,,,,,,,,,,,,,,,,,,,,,,,,,,,,,,,,,,,,,,,,
266,1729405667.5314686,270,0,33.697879797857766,73.01650375081326,1.25,,,,,,,,,,,,,,,,,,,,,,,,,,,,,,,,,,,,,,,,,,,,,,,,,,,,,,,,,,,,,,,,,,,,,,,,
267,1729405667.5314996,271,0,33.697879797857766,73.01650375081326,1.25,,,,,,,,,,,,,,,,,,,,,,,,,,,,,,,,,,,,,,,,,,,,,,,,,,,,,,,,,,,,,,,,,,,,,,,,
268,1729405667.5315337,272,0,33.697879797857766,73.01650375081326,1.25,,,,,,,,,,,,,,,,,,,,,,,,,,,,,,,,,,,,,,,,,,,,,,,,,,,,,,,,,,,,,,,,,,,,,,,,
269,1729405667.531562,273,0,33.697879797857766,73.01650375081326,1.25,,,,,,,,,,,,,,,,,,,,,,,,,,,,,,,,,,,,,,,,,,,,,,,,,,,,,,,,,,,,,,,,,,,,,,,,
270,1729405667.5316432,274,0,33.697879797857766,73.01650375081326,1.25,,,,,,,,,,,,,,,,,,,,,,,,,,,,,,,,,,,,,,,,,,,,,,,,,,,,,,,,,,,,,,,,,,,,,,,,
271,1729405667.5316665,275,0,33.697879797857766,73.01650375081326,1.25,,,,,,,,,,,,,,,,,,,,,,,,,,,,,,,,,,,,,,,,,,,,,,,,,,,,,,,,,,,,,,,,,,,,,,,,
272,1729405667.5317562,276,0,33.697879797857766,73.01650375081326,1.25,,,,,,,,,,,,,,,,,,,,,,,,,,,,,,,,,,,,,,,,,,,,,,,,,,,,,,,,,,,,,,,,,,,,,,,,
273,1729405667.5317876,277,0,33.697879797857766,73.01650375081326,1.25,,,,,,,,1729405664.2798476,8327,1729405663,1.3629547819502372,-1.575146605,-0.043,-0.040527817,0.002533995,-0.939104885,0.05,0,0.02,1729405664.276809,8331,1729405664,-0.040518092,0.002611723,-0.939052638,0.3413672596998662,-0.000166281,0.000828656,-0.000372635,,,,,,,,,,,,,,,,,,1729405663,509.0097696754381,73.0165342,33.6978284,13,,,,,,,,,,,,,,,,,,,,,
274,1729405667.5318882,279,0,33.697879797857766,73.01650375081326,1.25,,,,,,,,,,,,,,,,,,,,,,,,,,,,,,,,,,,,,,,,,,,,,,,,,,,,,,,,,,,,,,,,,,,,,,,,
275,1729405667.5320337,280,0,33.697879797857766,73.01650375081326,1.25,,,,,,,,,,,,,,,,,,,,,,,,,,,,,,,,,,,,,,,,,,,,,,,,,,,,,,,,,,,,,,,,,,,,,,,,
276,1729405667.532062,282,0,33.697879797857766,73.01650375081326,1.25,,,,,,,,,,,,,,,,,,,,,,,,,,,,,,,,,,,,,,,,,,,,,,,,,,,,,,,,,,,,,,,,,,,,,,,,
277,1729405667.5321076,283,0,33.697879797857766,73.01650375081326,1.25,,,,,,,,,,,,,,,,,,,,,,,,,,,,,,,,,,,,,,,,,,,,,,,,,,,,,,,,,,,,,,,,,,,,,,,,
278,1729405667.5322218,285,0,33.697879797857766,73.01650375081326,1.25,,,,,,,,,,,,,,,,,,,,,,,,,,,,,,,,,,,,,,,,,,,,,,,,,,,,,,,,,,,,,,,,,,,,,,,,
279,1729405667.5322623,287,0,33.697879797857766,73.01650375081326,1.25,,,,,,,,,,,,,,,,,,,,,,,,,,,,,,,,,,,,,,,,,,,,,,,,,,,,,,,,,,,,,,,,,,,,,,,,
280,1729405667.5323026,289,0,33.697879797857766,73.01650375081326,1.25,,,,,,,,,,,,,,,,,,,,,,,,,,,,,,,,,,,,,,,,,,,,,,,,,,,,1729405668.484794,1283,1729405668,33.6978824,73.016502,556.6400146484375,1.5707963705062866,,,,,,,,,,,,,,
281,1729405667.5323272,291,0,33.697879797857766,73.01650375081326,1.25,,,,,,,,,,,,,,,,,,,,,,,,,,,,,,,,,,,,,,,,,,,,,,,,,,,,,,,,,,,,,,,,,,,,,,,,
282,1729405668,293,0,33.697879797857766,73.01650375081326,1.25,,,,,,,,,,,,,,,,,,,,,,,,,,,,,,,,,,,,,,,,,,,,,,,,,,,,,,,,,,,,,,,,,,,,,,,,
283,1729405667.532406,295,0,33.697879797857766,73.01650375081326,1.25,,,,,,,,,,,,,,,,,,,,,,,,,,,,,,,,,,,,,,,,,,,,,,,,,,,,,,,,,,,,,,,,,,,,,,,,
284,1729405667.532796,297,0,33.697879797857766,73.01650375081326,1.25,,,,,,,,,,,,,,,,,,,,,,,,,,,,,,,,,,,,,,,,,,,,,,,,,,,,,,,,,,,,,,,,,,,,,,,,
285,1729405667.532955,299,0,33.697879797857766,73.01650375081326,1.25,,,,,,,,,,,,,,,,,,,,,,,,,,,,,,,,,,,,,,,,,,,,,,,,,,,,,,,,,,,,,,,,,,,,,,,,
286,1729405667.5329847,301,0,33.697879797857766,73.01650375081326,1.25,1729405665.3871026,8345,1729405665,0.067000002,0.01,0,-0.01,,,,,,,,,,,,,,,,,,,,,,,1729405665.1743448,8340,1729405665,1432,1637,1637,1459,0,1729405665.5770211,8344,1729405665,0.4427948296070099,0.084002241,232,0.270000011,555.2799682617188,0.4347538352012634,,,,,,,,,,,,,,,,,,,,,,,,,,
287,1729405667.5330057,303,0,33.697879797857766,73.01650375081326,1.25,,,,,,,,,,,,,,,,,,,,,,,,,,,,,,,,,,,,,,,,,,,,,,,,,,,,,,,,,,,,,,,,,,,,,,,,
288,1729405667.5333128,305,0,33.697879797857766,73.01650375081326,1.25,,,,,,,,,,,,,,,,,,,,,,,,,,,,,,,,,,,,,,,,,,,,,,,,,,,,,,,,,,,,,,,,,,,,,,,,
289,1729405667.5333402,306,0,33.697879797857766,73.01650375081326,1.25,,,,,,,,,,,,,,,,,,,,,,,,,,,,,,,,,,,,,,,,,,,,,,,,,,,,,,,,,,,,,,,,,,,,,,,,
290,1729405667.5334456,307,0,33.697879797857766,73.01650375081326,1.25,,,,,,,,,,,,,,,,,,,,,,,,,,,,,,,,,,,,,,,,,,,,,,,,,,,,,,,,,,,,,,,,,,,,,,,,
291,1729405667.5334709,308,0,33.697879797857766,73.01650375081326,1.25,,,,,,,,,,,,,,,,,,,,,,,,,,,,,,,,,,,,,,,,,,,,,,,,,,,,,,,,,,,,,,,,,,,,,,,,
292,1729405667.5334992,309,0,33.697879797857766,73.01650375081326,1.25,,,,,,,,,,,,,,,,,,,,,,,,,,,,,,,,,,,,,,,,,,,,,,,,,,,,,,,,,,,,,,,,,,,,,,,,
293,1729405667.5336633,310,0,33.697879797857766,73.01650375081326,1.25,,,,,,,,,,,,,,,,,,,,,,,,,,,,,,,,,,,,,,,,,,,,,,,,,,,,,,,,,,,,,,,,,,,,,,,,
294,1729405667.5336893,311,0,33.697879797857766,73.01650375081326,1.25,,,,,,,,1729405664.2799437,8328,1729405663,1.3629547833610145,-1.586239187,-0.046,-0.040514358,0.002557924,-0.939086841,0.05,0,0.02,1729405664.3762302,8332,1729405664,-0.040517391,0.002600436,-0.939042207,0.3413961232146939,-0.001181226,0.000690407,0.000181912,,,,,,,,,,,,,,,,,,1729405664,508.9997696754381,73.0165342,33.6978284,13,,,,,,,,,,,,,,,,,,,,,
295,1729405667.5338013,312,0,33.697879797857766,73.01650375081326,1.25,,,,,,,,,,,,,,,,,,,,,,,,,,,,,,,,,,,,,,,,,,,,,,,,,,,,,,,,,,,,,,,,,,,,,,,,
296,1729405667.5339153,313,0,33.697879797857766,73.01650375081326,1.25,,,,,,,,,,,,,,,,,,,,,,,,,,,,,,,,,,,,,,,,,,,,,,,,,,,,,,,,,,,,,,,,,,,,,,,,
297,1729405667.5339522,314,0,33.697879797857766,73.01650375081326,1.25,,,,,,,,,,,,,,,,,,,,,,,,,,,,,,,,,,,,,,,,,,,,,,,,,,,,,,,,,,,,,,,,,,,,,,,,
298,1729405667.5340064,315,0,33.697879797857766,73.01650375081326,1.25,,,,,,,,,,,,,,,,,,,,,,,,,,,,,,,,,,,,,,,,,,,,,,,,,,,,,,,,,,,,,,,,,,,,,,,,
299,1729405667.5340765,316,0,33.697879797857766,73.01650375081326,1.25,,,,,,,,,,,,,,,,,,,,,,,,,,,,,,,,,,,,,,,,,,,,,,,,,,,,,,,,,,,,,,,,,,,,,,,,
300,1729405667.5341034,317,0,33.697879797857766,73.01650375081326,1.25,,,,,,,,,,,,,,,,,,,,,,,,,,,,,,,,,,,,,,,,,,,,,,,,,,,,,,,,,,,,,,,,,,,,,,,,
301,1729405667.5342157,318,0,33.697879797857766,73.01650375081326,1.25,,,,,,,,,,,,,,,,,,,,,,,,,,,,,,,,,,,,,,,,,,,,,,,,,,,,,,,,,,,,,,,,,,,,,,,,
302,1729405667.534242,319,0,33.697879797857766,73.01650375081326,1.25,,,,,,,,,,,,,,,,,,,,,,,,,,,,,,,,,,,,,,,,,,,,,,,,,,,,,,,,,,,,,,,,,,,,,,,,
303,1729405667.534272,320,0,33.697879797857766,73.01650375081326,1.25,,,,,,,,,,,,,,,,,,,,,,,,,,,,,,,,,,,,,,,,,,,,,,,,,,,,,,,,,,,,,,,,,,,,,,,,
304,1729405667.5344443,321,0,33.697879797857766,73.01650375081326,1.25,,,,,,,,,,,,,,,,,,,,,,,,,,,,,,,,,,,,,,,,,,,,,,,,,,,,,,,,,,,,,,,,,,,,,,,,
305,1729405667.5345187,322,0,33.697879797857766,73.01650375081326,1.25,,,,,,,,,,,,,,,,,,,,,,,,,,,,,,,,,,,,,,,,,,,,,,,,,,,,,,,,,,,,,,,,,,,,,,,,
306,1729405667.5345645,323,0,33.697879797857766,73.01650375081326,1.25,,,,,,,,,,,,,,,,,,,,,,,,,,,,,,,,,,,,,,,,,,,,,,,,,,,,,,,,,,,,,,,,,,,,,,,,
307,1729405667.5346014,324,0,33.697879797857766,73.01650375081326,1.25,,,,,,,,,,,,,,,,,,,,,,,,,,,,,,,,,,,,,,,,,,,,,,,,,,,,,,,,,,,,,,,,,,,,,,,,
308,1729405667.534648,325,0,33.697879797857766,73.01650375081326,1.25,1729405665.4868774,8346,1729405665,0.068999998,0.01,0,-0.01,,,,,,,,,,,,,,,,,,,,,,,1729405665.2739697,8341,1729405665,1515,1698,1671,1598,0,1729405665.674756,8345,1729405665,0.55455482,0.1056712195277214,233,0.2800000011920929,555.3300170898438,0.5443938374519348,,,,,,1729405668.5877886,1284,1729405668,33.6978824,73.016502,556.6400146484375,1.5707963705062866,,,,,,,,,,,,,,
309,1729405668,326,0,33.697879797857766,73.01650375081326,1.25,,,,,,,,,,,,,,,,,,,,,,,,,,,,,,,,,,,,,,,,,,,,,,,,,,,,,,,,,,,,,,,,,,,,,,,,
310,1729405667.534716,327,0,33.697879797857766,73.01650375081326,1.25,,,,,,,,,,,,,,,,,,,,,,,,,,,,,,,,,,,,,,,,,,,,,,,,,,,,,,,,,,,,,,,,,,,,,,,,
311,1729405667.5347965,328,0,33.697879797857766,73.01650375081326,1.25,,,,,,,,,,,,,,,,,,,,,,,,,,,,,,,,,,,,,,,,,,,,,,,,,,,,,,,,,,,,,,,,,,,,,,,,
312,1729405667.5348213,329,0,33.697879797857766,73.01650375081326,1.25,,,,,,,,,,,,,,,,,,,,,,,,,,,,,,,,,,,,,,,,,,,,,,,,,,,,,,,,,,,,,,,,,,,,,,,,
313,1729405667.534973,330,0,33.697879797857766,73.01650375081326,1.25,,,,,,,,,,,,,,,,,,,,,,,,,,,,,,,,,,,,,,,,,,,,,,,,,,,,,,,,,,,,,,,,,,,,,,,,
314,1729405667.5350058,331,0,33.697879797857766,73.01650375081326,1.25,,,,,,,,,,,,,,,,,,,,,,,,,,,,,,,,,,,,,,,,,,,,,,,,,,,,,,,,,,,,,,,,,,,,,,,,
315,1729405667.535069,332,0,33.697879797857766,73.01650375081326,1.25,,,,,,,,1729405664.2799804,8329,1729405664,1.3629547814727705,-1.586239185,-0.052,-0.040510323,0.002587711,-0.939066131,0.05,0,0.02,1729405664.4716597,8333,1729405664,-0.04050209,0.002557834,-0.938911308,0.3417580918514536,0.011095827,-0.00403045,0.034989521,,,,,,,,,,,,,,,,,,1729405664,508.9997696754381,73.0165342,33.6978284,13,,,,,,,,,,,,,,,,,,,,,
316,1729405667.5350907,333,0,33.697879797857766,73.01650375081326,1.25,,,,,,,,,,,,,,,,,,,,,,,,,,,,,,,,,,,,,,,,,,,,,,,,,,,,,,,,,,,,,,,,,,,,,,,,
317,1729405668,334,0,33.697879797857766,73.01650375081326,1.25,,,,,,,,,,,,,,,,,,,,,,,,,,,,,,,,,,,,,,,,,,,,,,,,,,,,,,,,,,,,,,,,,,,,,,,,
318,1729405667.5352235,335,0,33.697879797857766,73.01650375081326,1.25,,,,,,,,,,,,,,,,,,,,,,,,,,,,,,,,,,,,,,,,,,,,,,,,,,,,,,,,,,,,,,,,,,,,,,,,
319,1729405667.5352528,336,0,33.697879797857766,73.01650375081326,1.25,,,,,,,,,,,,,,,,,,,,,,,,,,,,,,,,,,,,,,,,,,,,,,,,,,,,,,,,,,,,,,,,,,,,,,,,
320,1729405667.5353053,337,0,33.697879797857766,73.01650375081326,1.25,,,,,,,,,,,,,,,,,,,,,,,,,,,,,,,,,,,,,,,,,,,,,,,,,,,,,,,,,,,,,,,,,,,,,,,,
321,1729405667.535327,338,0,33.697879797857766,73.01650375081326,1.25,,,,,,,,,,,,,,,,,,,,,,,,,,,,,,,,,,,,,,,,,,,,,,,,,,,,,,,,,,,,,,,,,,,,,,,,
322,1729405667.5354218,339,0,33.697879797857766,73.01650375081326,1.25,,,,,,,,,,,,,,,,,,,,,,,,,,,,,,,,,,,,,,,,,,,,,,,,,,,,,,,,,,,,,,,,,,,,,,,,
323,1729405667.5355394,340,0,33.697879797857766,73.01650375081326,1.25,,,,,,,,,,,,,,,,,,,,,,,,,,,,,,,,,,,,,,,,,,,,,,,,,,,,,,,,,,,,,,,,,,,,,,,,
324,1729405667.535574,341,0,33.697879797857766,73.01650375081326,1.25,,,,,,,,,,,,,,,,,,,,,,,,,,,,,,,,,,,,,,,,,,,,,,,,,,,,,,,,,,,,,,,,,,,,,,,,
325,1729405667.5356295,342,0,33.697879797857766,73.01650375081326,1.25,,,,,,,,,,,,,,,,,,,,,,,,,,,,,,,,,,,,,,,,,,,,,,,,,,,,,,,,,,,,,,,,,,,,,,,,
326,1729405667.5356998,343,0,33.697879797857766,73.01650375081326,1.25,,,,,,,,,,,,,,,,,,,,,,,,,,,,,,,,,,,,,,,,,,,,,,,,,,,,,,,,,,,,,,,,,,,,,,,,
327,1729405667.5357215,344,0,33.697879797857766,73.01650375081326,1.25,,,,,,,,,,,,,,,,,,,,,,,,,,,,,,,,,,,,,,,,,,,,,,,,,,,,,,,,,,,,,,,,,,,,,,,,
328,1729405667.535741,345,0,33.697879797857766,73.01650375081326,1.25,,,,,,,,,,,,,,,,,,,,,,,,,,,,,,,,,,,,,,,,,,,,,,,,,,,,,,,,,,,,,,,,,,,,,,,,
329,1729405667.535804,346,0,33.697879797857766,73.01650375081326,1.25,,,,,,,,,,,,,,,,,,,,,,,,,,,,,,,,,,,,,,,,,,,,,,,,,,,,,,,,,,,,,,,,,,,,,,,,
330,1729405667.5358531,347,0,33.697879797857766,73.01650375081326,1.25,1729405665.591298,8347,1729405665,0.054000001,0.01,0,-0.01,,,,,,,,,,,,,,,,,,,,,,,1729405665.3750503,8342,1729405665,1745,1553,1654,1720,0,1729405666,8346,1729405665,0.7870789170265198,0.099279992,234,0.270000011,555.4099731445312,0.7807922959327698,,,,,,,,,,,,,,,,,,,,,,,,,,
331,1729405667.5359447,348,0,33.697879797857766,73.01650375081326,1.25,,,,,,,,,,,,,,,,,,,,,,,,,,,,,,,,,,,,,,,,,,,,,,,,,,,,,,,,,,,,,,,,,,,,,,,,
332,1729405667.535973,349,0,33.697879797857766,73.01650375081326,1.25,,,,,,,,,,,,,,,,,,,,,,,,,,,,,,,,,,,,,,,,,,,,,,,,,,,,,,,,,,,,,,,,,,,,,,,,
333,1729405667.5360763,350,0,33.697879797857766,73.01650375081326,1.25,,,,,,,,,,,,,,,,,,,,,,,,,,,,,,,,,,,,,,,,,,,,,,,,,,,,,,,,,,,,,,,,,,,,,,,,
334,1729405667.5360992,351,0,33.697879797857766,73.01650375081326,1.25,,,,,,,,,,,,,,,,,,,,,,,,,,,,,,,,,,,,,,,,,,,,,,,,,,,,,,,,,,,,,,,,,,,,,,,,
335,1729405667.5362177,352,0,33.697879797857766,73.01650375081326,1.25,,,,,,,,,,,,,,,,,,,,,,,,,,,,,,,,,,,,,,,,,,,,,,,,,,,,,,,,,,,,,,,,,,,,,,,,
336,1729405667.5362432,353,0,33.697879797857766,73.01650375081326,1.25,,,,,,,,1729405664.2801328,8330,1729405664,1.3629547814727705,-1.586239185,-0.057,-0.040542634,0.002593551,-0.939055418,0.05,0,0.02,1729405664.5739162,8334,1729405664,-0.040448013,0.00274369,-0.93911467,0.3412038487326084,-0.012172497,0.018728515,-0.048228383,,,,,,,,,,,,,,,,,,1729405664,508.9897696754381,73.0165342,33.6978284,13,1729405668.6826065,1285,1729405668,33.6978824,73.016502,556.6400146484375,1.5707963705062866,,,,,,,,,,,,,,
337,1729405667.5363176,354,0,33.697879797857766,73.01650375081326,1.25,,,,,,,,,,,,,,,,,,,,,,,,,,,,,,,,,,,,,,,,,,,,,,,,,,,,,,,,,,,,,,,,,,,,,,,,
338,1729405667.5363412,355,0,33.697879797857766,73.01650375081326,1.25,,,,,,,,,,,,,,,,,,,,,,,,,,,,,,,,,,,,,,,,,,,,,,,,,,,,,,,,,,,,,,,,,,,,,,,,
339,1729405667.5363843,356,0,33.697879797857766,73.01650375081326,1.25,,,,,,,,,,,,,,,,,,,,,,,,,,,,,,,,,,,,,,,,,,,,,,,,,,,,,,,,,,,,,,,,,,,,,,,,
340,1729405667.5365405,357,0,33.697879797857766,73.01650375081326,1.25,,,,,,,,,,,,,,,,,,,,,,,,,,,,,,,,,,,,,,,,,,,,,,,,,,,,,,,,,,,,,,,,,,,,,,,,
341,1729405667.536692,358,0,33.697879797857766,73.01650375081326,1.25,,,,,,,,,,,,,,,,,,,,,,,,,,,,,,,,,,,,,,,,,,,,,,,,,,,,,,,,,,,,,,,,,,,,,,,,
342,1729405667.5367153,359,0,33.697879797857766,73.01650375081326,1.25,,,,,,,,,,,,,,,,,,,,,,,,,,,,,,,,,,,,,,,,,,,,,,,,,,,,,,,,,,,,,,,,,,,,,,,,
343,1729405667.5369012,360,0,33.697879797857766,73.01650375081326,1.25,,,,,,,,,,,,,,,,,,,,,,,,,,,,,,,,,,,,,,,,,,,,,,,,,,,,,,,,,,,,,,,,,,,,,,,,
344,1729405667.5387802,361,0,33.697879797857766,73.01650375081326,1.25,,,,,,,,,,,,,,,,,,,,,,,,,,,,,,,,,,,,,,,,,,,,,,,,,,,,,,,,,,,,,,,,,,,,,,,,
