S.No,setpoint_raw-global_Time,setpoint_raw-global_header.seq,setpoint_raw-global_header.stamp.secs,setpoint_raw-global_latitude,setpoint_raw-global_longitude,setpoint_raw-global_altitude,battery_Time,battery_header.seq,battery_header.stamp.secs,battery_voltage,battery_current,battery_temperature,battery_percentage,global_position-local_Time,global_position-local_header.seq,global_position-local_header.stamp.secs,global_position-local_pose.pose.position.x,global_position-local_pose.pose.position.y,global_position-local_pose.pose.position.z,global_position-local_pose.pose.orientation.x,global_position-local_pose.pose.orientation.y,global_position-local_pose.pose.orientation.z,global_position-local_twist.twist.linear.x,global_position-local_twist.twist.linear.y,global_position-local_twist.twist.linear.z,imu-data_Time,imu-data_header.seq,imu-data_header.stamp.secs,imu-data_orientation.x,imu-data_orientation.y,imu-data_orientation.z,imu-data_orientation.w,imu-data_angular_velocity.x,imu-data_angular_velocity.y,imu-data_angular_velocity.z,rc-out_Time,rc-out_header.seq,rc-out_header.stamp.secs,rc-out_channels_0,rc-out_channels_1,rc-out_channels_2,rc-out_channels_3,rc-out_channels_4,vfr_hud_Time,vfr_hud_header.seq,vfr_hud_header.stamp.secs,vfr_hud_airspeed,vfr_hud_groundspeed,vfr_hud_heading,vfr_hud_throttle,vfr_hud_altitude,vfr_hud_climb,global_position-global_header.stamp.secs,global_position-global_altitude,global_position-global_longitude,global_position-global_latitude,global_position-raw-satellites_data,setpoint_raw-target_global_Time,setpoint_raw-target_global_header.seq,setpoint_raw-target_global_header.stamp.secs,setpoint_raw-target_global_latitude,setpoint_raw-target_global_longitude,setpoint_raw-target_global_altitude,setpoint_raw-target_global_yaw,state_Time,state_header.seq,state_connected,state_armed,state_guided,state_manual_input,state_system_status,RSSI_Time,RSSI_Quality,RSSI_Signal,CPU_Time,CPU_Percent,RAM_Time,Used_RAM_MB
0,1729315169.110145,137,0,33.70730778827253,73.01984883365776,1.25,1729315146.615721,14916,1729315146,0.1570000052452087,0.01,0,-0.01,1729315146.6054208,14901,1729315145,0.6860381345278759,-0.721019255,0.223,0.024752955,0.020087509,-0.748004805,0.04,-0.04,0,1729315146.6057606,14905,1729315145,0.024747865,0.020155647,-0.748333691,0.6625541332846316,0.000610661,0.000333672,-0.00331389,1729315146.615146,14913,1729315146,1000,1000,1000,1000,0,1729315146.7262084,14918,1729315146,0.062039148,0.06181908,187,0,557.9799805,0.005220731,1729315145,511.7674702584072,73.0198333,33.7073201,8,1729315169.1770146,2738,1729315169,33.7073077,73.0198488,559.0299682617188,1.5707963705062866,1729315146.615477,2001,1,0,0,1,5,1729315152.620327,1,-40,1729315153,9.6,1729315156.838261,5.9
1,1729315169.1226118,139,0,33.70730779298377,73.01984887848778,1.25,,,,,,,,,,,,,,,,,,,,,,,,,,,,,,,,,,,,,,,,,,,,,,,,,,,,,,,,,,,,,,,,,,,,,,,,
2,1729315169.1226592,141,0,33.70730779298377,73.01984887848778,1.25,,,,,,,,,,,,,,,,,,,,,,,,,,,,,,,,,,,,,,,,,,,,,,,,,,,,,,,,,,,,,,,,,,,,,,,,
3,1729315169.1236825,147,0,33.70730779298377,73.01984887848778,1.25,,,,,,,,,,,,,,,,,,,,,,,,,,,,,,,,,,,,,,,,,,,,,,,,,,,,,,,,,,,,,,,,,,,,,,,,
4,1729315169.1239903,155,0,33.70730779298377,73.01984887848778,1.25,,,,,,,,,,,,,,,,,,,,,,,,,,,,,,,,,,,,,,,,,,,,,,,,,,,,,,,,,,,,,,,,,,,,,,,,
5,1729315169.124605,170,0,33.70730779298377,73.01984887848778,1.25,,,,,,,,,,,,,,,,,,,,,,,,,,,,,,,,,,,,,,,,,,,,,,,,,,,,,,,,,,,,,,,,,,,,,,,,
6,1729315169.1246338,198,0,33.70730779298377,73.01984887848778,1.25,,,,,,,,,,,,,,,,,,,,,,,,,,,,,,,,,,,,,,,,,,,,,,,,,,,,,,,,,,,,,,,,,,,,,,,,
7,1729315169.124932,208,0,33.70730779298377,73.01984887848778,1.25,,,,,,,,,,,,,,,,,,,,,,,,,,,,,,,,,,,,,,,,,,,,,,,,,,,,,,,,,,,,,,,,,,,,,,,,
8,1729315169.1250355,214,0,33.70730779298377,73.01984887848778,1.25,,,,,,,,,,,,,,,,,,,,,,,,,,,,,,,,,,,,,,,,,,,,,,,,,,,,,,,,,,,,,,,,,,,,,,,,
9,1729315169,218,0,33.70730779298377,73.01984887848778,1.25,,,,,,,,,,,,,,,,,,,,,,,,,,,,,,,,,,,,,,,,,,,,,,,,,,,,,,,,,,,,,,,,,,,,,,,,
10,1729315169.125235,229,0,33.70730779298377,73.01984887848778,1.25,,,,,,,,,,,,,,,,,,,,,,,,,,,,,,,,,,,,,,,,,,,,,,,,,,,,,,,,,,,,,,,,,,,,,,,,
11,1729315169.1253152,239,0,33.70730779298377,73.01984887848778,1.25,,,,,,,,,,,,,,,,,,,,,,,,,,,,,,,,,,,,,,,,,,,,,,,,,,,,,,,,,,,,,,,,,,,,,,,,
12,1729315169.1253395,244,0,33.70730779298377,73.01984887848778,1.25,,,,,,,,,,,,,,,,,,,,,,,,,,,,,,,,,,,,,,,,,,,,,,,,,,,,,,,,,,,,,,,,,,,,,,,,
13,1729315169.1260977,253,0,33.70730779298377,73.01984887848778,1.25,,,,,,,,,,,,,,,,,,,,,,,,,,,,,,,,,,,,,,,,,,,,,,,,,,,,,,,,,,,,,,,,,,,,,,,,
14,1729315169.126272,256,0,33.70730779298377,73.01984887848778,1.25,,,,,,,,,,,,,,,,,,,,,,,,,,,,,,,,,,,,,,,,,,,,,,,,,,,,,,,,,,,,,,,,,,,,,,,,
15,1729315169.1262972,259,0,33.70730779298377,73.01984887848778,1.25,,,,,,,,,,,,,,,,,,,,,,,,,,,,,,,,,,,,,,,,,,,,,,,,,,,,,,,,,,,,,,,,,,,,,,,,
16,1729315169.1264498,274,0,33.70730779298377,73.01984887848778,1.25,,,,,,,,,,,,,,,,,,,,,,,,,,,,,,,,,,,,,,,,,,,,,,,,,,,,,,,,,,,,,,,,,,,,,,,,
17,1729315169.126479,282,0,33.70730779298377,73.01984887848778,1.25,1729315146.615954,14917,1729315146,0.1500000059604644,0.01,0,-0.01,1729315146.6055012,14902,1729315145,0.6953089214168917,-0.732111858,0.23,0.024762294,0.020121719,-0.748101383,0.04,-0.04,0,1729315146.6058855,14906,1729315145,0.024727824,0.020101032,-0.748414874,0.6624648366204686,0.000437019,-0.001663073,-0.00421343,1729315146.6153045,14914,1729315146,1000,1000,1000,1000,0,1729315146.823364,14919,1729315146,0.061678775,0.061475225,187,0,557.9799805,0.005006512,1729315145,511.7774700180555,73.0198334,33.70732,8,,,,,,,,,,,,,,,,,,,,,
18,1729315169.1265166,288,0,33.70730779298377,73.01984887848778,1.25,,,,,,,,,,,,,,,,,,,,,,,,,,,,,,,,,,,,,,,,,,,,,,,,,,,,,,,,,,,,,,,,,,,,,,,,
19,1729315169.126542,301,0,33.70730779298377,73.01984887848778,1.25,,,,,,,,,,,,,,,,,,,,,,,,,,,,,,,,,,,,,,,,,,,,,,,,,,,,,,,,,,,,,,,,,,,,,,,,
20,1729315169.1267104,352,0,33.70730779298377,73.01984887848778,1.25,,,,,,,,,,,,,,,,,,,,,,,,,,,,,,,,,,,,,,,,,,,,,,,,,,,,,,,,,,,,,,,,,,,,,,,,
21,1729315169.1268566,355,0,33.70730779298377,73.01984887848778,1.25,,,,,,,,,,,,,,,,,,,,,,,,,,,,,,,,,,,,,,,,,,,,,,,,,,,,,,,,,,,,,,,,,,,,,,,,
22,1729315169.1268857,386,0,33.70730779298377,73.01984887848778,1.25,,,,,,,,,,,,,,,,,,,,,,,,,,,,,,,,,,,,,,,,,,,,,,,,,,,,,,,,,,,,,,,,,,,,,,,,
23,1729315169.1269822,391,0,33.70730779298377,73.01984887848778,1.25,,,,,,,,,,,,,,,,,,,,,,,,,,,,,,,,,,,,,,,,,,,,,,,,,,,,,,,,,,,,,,,,,,,,,,,,
24,1729315169.1271222,396,0,33.70730779298377,73.01984887848778,1.25,,,,,,,,,,,,,,,,,,,,,,,,,,,,,,,,,,,,,,,,,,,,,,,,,,,,,,,,,,,,,,,,,,,,,,,,
25,1729315169.1272523,406,0,33.70730779298377,73.01984887848778,1.25,,,,,,,,,,,,,,,,,,,,,,,,,,,,,,,,,,,,,,,,,,,,,,,,,,,,,,,,,,,,,,,,,,,,,,,,
26,1729315169.127302,417,0,33.70730779298377,73.01984887848778,1.25,,,,,,,,,,,,,,,,,,,,,,,,,,,,,,,,,,,,,,,,,,,,,,,,,,,,,,,,,,,,,,,,,,,,,,,,
27,1729315169.1337385,470,0,33.70730779298377,73.01984887848778,1.25,,,,,,,,,,,,,,,,,,,,,,,,,,,,,,,,,,,,,,,,,,,,,,,,,,,,,,,,,,,,,,,,,,,,,,,,
28,1729315169.134246,472,0,33.70730779298377,73.01984887848778,1.25,,,,,,,,,,,,,,,,,,,,,,,,,,,,,,,,,,,,,,,,,,,,,,,,,,,,,,,,,,,,,,,,,,,,,,,,
29,1729315169.1342835,475,0,33.70730779298377,73.01984887848778,1.25,,,,,,,,,,,,,,,,,,,,,,,,,,,,,,,,,,,,,,,,,,,,,,,,,,,,,,,,,,,,,,,,,,,,,,,,
30,1729315169.1347754,485,0,33.70730789298377,73.01984887848778,1.25,,,,,,,,,,,,,,,,,,,,,,,,,,,,,,,,,,,,,,,,,,,,,,,,,,,,,,,,,,,,,,,,,,,,,,,,
31,1729315169.1348364,493,0,33.70730789298377,73.01984887848778,1.25,,,,,,,,,,,,,,,,,,,,,,,,,,,,,,,,,,,,,,,,,,,,,,,,,,,,,,,,,,,,,,,,,,,,,,,,
32,1729315169.1350417,495,0,33.70730789655137,73.01984891210506,1.25,,,,,,,,,,,,,,,,,,,,,,,,,,,,,,,,,,,,,,,,,,,,,,,,,,,,,,,,,,,,,,,,,,,,,,,,
33,1729315169.1350768,497,0,33.70730789655137,73.01984891210506,1.25,,,,,,,,,,,,,,,,,,,,,,,,,,,,,,,,,,,,,,,,,,,,,,,,,,,,,,,,,,,,,,,,,,,,,,,,
34,1729315169.1351857,501,0,33.70730789655137,73.01984891210506,1.25,1729315146.6382384,14918,1729315146,0.1609999984502792,0.01,0,-0.01,1729315146.6055596,14903,1729315145,0.6953089230145537,-0.743204464,0.241,0.024753638,0.020162783,-0.748185097,0.04,-0.04,0,1729315146.606108,14907,1729315145,0.024716239,0.020101507,-0.748487559,0.6623831296481372,-0.000242282,0.000216562,-0.004180899,1729315146.615519,14915,1729315146,1000,1000,1000,1000,0,1729315146.924476,14920,1729315146,0.061780192,0.061536476,187,0,557.9799805,0.005482017,1729315145,511.7874693459373,73.0198334,33.7073199,8,,,,,,,,,,,,,,,,,,,,,
35,1729315169.135214,516,0,33.70730789655137,73.01984891210506,1.25,,,,,,,,,,,,,,,,,,,,,,,,,,,,,,,,,,,,,,,,,,,,,,,,,,,,1729315169.2371492,2739,1729315169,33.7073077,73.0198488,559.0299682617188,1.5707963705062866,,,,,,,,,,,,,,
36,1729315169.138534,530,0,33.70730789655137,73.01984891210506,1.25,,,,,,,,,,,,,,,,,,,,,,,,,,,,,,,,,,,,,,,,,,,,,,,,,,,,,,,,,,,,,,,,,,,,,,,,
37,1729315169.1387613,545,0,33.70730789655137,73.01984891210506,1.25,,,,,,,,,,,,,,,,,,,,,,,,,,,,,,,,,,,,,,,,,,,,,,,,,,,,,,,,,,,,,,,,,,,,,,,,
38,1729315169.138956,552,0,33.70730789655137,73.01984891210506,1.25,,,,,,,,,,,,,,,,,,,,,,,,,,,,,,,,,,,,,,,,,,,,,,,,,,,,,,,,,,,,,,,,,,,,,,,,
39,1729315169.139144,560,0,33.70730789655137,73.01984891210506,1.25,,,,,,,,,,,,,,,,,,,,,,,,,,,,,,,,,,,,,,,,,,,,,,,,,,,,,,,,,,,,,,,,,,,,,,,,
40,1729315169.145691,575,0,33.70730789655137,73.01984891210506,1.25,,,,,,,,,,,,,,,,,,,,,,,,,,,,,,,,,,,,,,,,,,,,,,,,,,,,,,,,,,,,,,,,,,,,,,,,
41,1729315169.145929,581,0,33.70730789655137,73.01984891210506,1.25,,,,,,,,,,,,,,,,,,,,,,,,,,,,,,,,,,,,,,,,,,,,,,,,,,,,,,,,,,,,,,,,,,,,,,,,
42,1729315169.1487982,590,0,33.70730789655137,73.01984891210506,1.25,,,,,,,,,,,,,,,,,,,,,,,,,,,,,,,,,,,,,,,,,,,,,,,,,,,,,,,,,,,,,,,,,,,,,,,,
43,1729315169.1488583,606,0,33.70730789655137,73.01984891210506,1.25,,,,,,,,,,,,,,,,,,,,,,,,,,,,,,,,,,,,,,,,,,,,,,,,,,,,,,,,,,,,,,,,,,,,,,,,
44,1729315169.1510804,627,0,33.70730789655137,73.01984891210506,1.25,,,,,,,,,,,,,,,,,,,,,,,,,,,,,,,,,,,,,,,,,,,,,,,,,,,,,,,,,,,,,,,,,,,,,,,,
45,1729315169.154075,642,0,33.70730789655137,73.01984891210506,1.25,,,,,,,,,,,,,,,,,,,,,,,,,,,,,,,,,,,,,,,,,,,,,,,,,,,,,,,,,,,,,,,,,,,,,,,,
46,1729315169.2875051,651,0,33.70730789655137,73.01984891210506,1.25,,,,,,,,,,,,,,,,,,,,,,,,,,,,,,,,,,,,,,,,,,,,,,,,,,,,,,,,,,,,,,,,,,,,,,,,
47,1729315169.2876904,657,0,33.70730789655137,73.01984891210506,1.25,,,,,,,,,,,,,,,,,,,,,,,,,,,,,,,,,,,,,,,,,,,,,,,,,,,,,,,,,,,,,,,,,,,,,,,,
48,1729315169.2877142,672,0,33.70730789655137,73.01984891210506,1.25,,,,,,,,,,,,,,,,,,,,,,,,,,,,,,,,,,,,,,,,,,,,,,,,,,,,,,,,,,,,,,,,,,,,,,,,
49,1729315169.2877386,686,0,33.70730789655137,73.01984891210506,1.25,,,,,,,,,,,,,,,,,,,,,,,,,,,,,,,,,,,,,,,,,,,,,,,,,,,,,,,,,,,,,,,,,,,,,,,,
50,1729315169.2878172,696,0,33.70730789655137,73.01984891210506,1.25,,,,,,,,,,,,,,,,,,,,,,,,,,,,,,,,,,,,,,,,,,,,,,,,,,,,,,,,,,,,,,,,,,,,,,,,
51,1729315169.2879753,701,0,33.70730789655137,73.01984891210506,1.25,1729315146.7366831,14919,1729315146,0.1599999964237213,0.01,0,-0.01,1729315146.6056936,14904,1729315145,0.7045797114623338,-0.754297069,0.254,0.024754573,0.020170054,-0.748256372,0.04,-0.04,0,1729315146.6063912,14908,1729315145,0.024709893,0.020045442,-0.748565712,0.6622967439026364,0.000729908,-0.001669265,-0.002698901,1729315146.6157582,14916,1729315146,1000,1000,1000,1000,0,1729315147.024438,14921,1729315147,0.06196072,0.061847311,187,0,557.9699707,0.00374707,1729315145,511.7974691055856,73.0198335,33.7073198,8,,,,,,,,,,,,,,,,,,,,,
52,1729315169.2879963,706,0,33.70730789655137,73.01984891210506,1.25,,,,,,,,,,,,,,,,,,,,,,,,,,,,,,,,,,,,,,,,,,,,,,,,,,,,,,,,,,,,,,,,,,,,,,,,
53,1729315169.2880566,716,0,33.70730789655137,73.01984891210506,1.25,,,,,,,,,,,,,,,,,,,,,,,,,,,,,,,,,,,,,,,,,,,,,,,,,,,,,,,,,,,,,,,,,,,,,,,,
54,1729315169.2882173,722,0,33.70730789655137,73.01984891210506,1.25,,,,,,,,,,,,,,,,,,,,,,,,,,,,,,,,,,,,,,,,,,,,,,,,,,,,,,,,,,,,,,,,,,,,,,,,
55,1729315169.2883246,730,0,33.70730789655137,73.01984891210506,1.25,,,,,,,,,,,,,,,,,,,,,,,,,,,,,,,,,,,,,,,,,,,,,,,,,,,,,,,,,,,,,,,,,,,,,,,,
56,1729315169.2883427,745,0,33.70730789655137,73.01984891210506,1.25,,,,,,,,,,,,,,,,,,,,,,,,,,,,,,,,,,,,,,,,,,,,,,,,,,,,,,,,,,,,,,,,,,,,,,,,
57,1729315169.288417,760,0,33.70730789655137,73.01984891210506,1.25,,,,,,,,,,,,,,,,,,,,,,,,,,,,,,,,,,,,,,,,,,,,,,,,,,,,,,,,,,,,,,,,,,,,,,,,
58,1729315169.288436,765,0,33.70730789655137,73.01984891210506,1.25,,,,,,,,,,,,,,,,,,,,,,,,,,,,,,,,,,,,,,,,,,,,,,,,,,,,,,,,,,,,,,,,,,,,,,,,
59,1729315169.2884514,774,0,33.70730789655137,73.01984891210506,1.25,,,,,,,,,,,,,,,,,,,,,,,,,,,,,,,,,,,,,,,,,,,,,,,,,,,,,,,,,,,,,,,,,,,,,,,,
60,1729315169.2887175,786,0,33.70730789655137,73.01984891210506,1.25,,,,,,,,,,,,,,,,,,,,,,,,,,,,,,,,,,,,,,,,,,,,,,,,,,,,,,,,,,,,,,,,,,,,,,,,
61,1729315169.288804,789,0,33.70730789655137,73.01984891210506,1.25,,,,,,,,,,,,,,,,,,,,,,,,,,,,,,,,,,,,,,,,,,,,,,,,,,,,,,,,,,,,,,,,,,,,,,,,
62,1729315169.2888246,803,0,33.70730789655137,73.01984891210506,1.25,,,,,,,,,,,,,,,,,,,,,,,,,,,,,,,,,,,,,,,,,,,,,,,,,,,,,,,,,,,,,,,,,,,,,,,,
63,1729315169.288971,817,0,33.70730789655137,73.01984891210506,1.25,,,,,,,,,,,,,,,,,,,,,,,,,,,,,,,,,,,,,,,,,,,,,,,,,,,,,,,,,,,,,,,,,,,,,,,,
64,1729315169.2890458,826,0,33.70730789655137,73.01984891210506,1.25,,,,,,,,,,,,,,,,,,,,,,,,,,,,,,,,,,,,,,,,,,,,,,,,,,,,,,,,,,,,,,,,,,,,,,,,
65,1729315169.289116,833,0,33.70730789655137,73.01984891210506,1.25,,,,,,,,,,,,,,,,,,,,,,,,,,,,,,,,,,,,,,,,,,,,,,,,,,,,,,,,,,,,,,,,,,,,,,,,
66,1729315169.2892122,847,0,33.70730789655137,73.01984891210506,1.25,,,,,,,,,,,,,,,,,,,,,,,,,,,,,,,,,,,,,,,,,,,,,,,,,,,,,,,,,,,,,,,,,,,,,,,,
67,1729315169.289301,861,0,33.70730789655137,73.01984891210506,1.25,,,,,,,,,,,,,,,,,,,,,,,,,,,,,,,,,,,,,,,,,,,,,,,,,,,,,,,,,,,,,,,,,,,,,,,,
68,1729315169.2893145,871,0,33.70730789655137,73.01984891210506,1.25,1729315146.833599,14920,1729315146,0.1609999984502792,0.01,0,-0.01,1729315146.605811,14905,1729315145,0.7045797114623338,-0.754297069,0.256,0.024747865,0.020155647,-0.748333691,0.04,-0.04,0,1729315146.6065493,14909,1729315145,0.024711111,0.019988376,-0.748642431,0.6622117005327652,0.000382145,-0.001331773,-0.003801222,1729315146.6232452,14917,1729315146,1000,1000,1000,1000,0,1729315147.1244318,14922,1729315147,0.061634645,0.061634496,187,0,557.9599609,0.000126683,1729315145,511.7974691055856,73.0198335,33.7073198,8,,,,,,,,,,,,,,,,,,,,,
69,1729315169.2893326,877,0,33.70730789655137,73.01984891210506,1.25,,,,,,,,,,,,,,,,,,,,,,,,,,,,,,,,,,,,,,,,,,,,,,,,,,,,,,,,,,,,,,,,,,,,,,,,
70,1729315169.2894044,891,0,33.70730789655137,73.01984891210506,1.25,,,,,,,,,,,,,,,,,,,,,,,,,,,,,,,,,,,,,,,,,,,,,,,,,,,,1729315169.3410692,2740,1729315169,33.7073077,73.0198488,559.0299682617188,1.5707963705062866,,,,,,,,,,,,,,
71,1729315169.2895849,906,0,33.70730789655137,73.01984891210506,1.25,,,,,,,,,,,,,,,,,,,,,,,,,,,,,,,,,,,,,,,,,,,,,,,,,,,,,,,,,,,,,,,,,,,,,,,,
72,1729315169.289599,920,0,33.70730789655137,73.01984891210506,1.25,,,,,,,,,,,,,,,,,,,,,,,,,,,,,,,,,,,,,,,,,,,,,,,,,,,,,,,,,,,,,,,,,,,,,,,,
73,1729315169.2896657,935,0,33.70730789655137,73.01984891210506,1.25,,,,,,,,,,,,,,,,,,,,,,,,,,,,,,,,,,,,,,,,,,,,,,,,,,,,,,,,,,,,,,,,,,,,,,,,
74,1729315169.2898157,946,0,33.70730789655137,73.01984891210506,1.25,,,,,,,,,,,,,,,,,,,,,,,,,,,,,,,,,,,,,,,,,,,,,,,,,,,,,,,,,,,,,,,,,,,,,,,,
75,1729315169.2915883,950,0,33.70730789655137,73.01984891210506,1.25,,,,,,,,,,,,,,,,,,,,,,,,,,,,,,,,,,,,,,,,,,,,,,,,,,,,,,,,,,,,,,,,,,,,,,,,
76,1729315169.2916155,953,0,33.70730789655137,73.01984891210506,1.25,,,,,,,,,,,,,,,,,,,,,,,,,,,,,,,,,,,,,,,,,,,,,,,,,,,,,,,,,,,,,,,,,,,,,,,,
77,1729315169.2917583,960,0,33.70730799180108,73.01984886728103,1.25,,,,,,,,,,,,,,,,,,,,,,,,,,,,,,,,,,,,,,,,,,,,,,,,,,,,,,,,,,,,,,,,,,,,,,,,
78,1729315169.2917814,966,0,33.70730799180108,73.01984886728103,1.25,,,,,,,,,,,,,,,,,,,,,,,,,,,,,,,,,,,,,,,,,,,,,,,,,,,,,,,,,,,,,,,,,,,,,,,,
79,1729315169.2918556,998,0,33.70730799180108,73.01984886728103,1.25,,,,,,,,,,,,,,,,,,,,,,,,,,,,,,,,,,,,,,,,,,,,,,,,,,,,,,,,,,,,,,,,,,,,,,,,
80,1729315169.2921877,1076,0,33.70730799180108,73.01984886728103,1.25,,,,,,,,,,,,,,,,,,,,,,,,,,,,,,,,,,,,,,,,,,,,,,,,,,,,,,,,,,,,,,,,,,,,,,,,
81,1729315169.2923129,1093,0,33.70730799180108,73.01984886728103,1.25,,,,,,,,,,,,,,,,,,,,,,,,,,,,,,,,,,,,,,,,,,,,,,,,,,,,,,,,,,,,,,,,,,,,,,,,
82,1729315169.2923355,1095,0,33.70730799180108,73.01984886728103,1.25,,,,,,,,,,,,,,,,,,,,,,,,,,,,,,,,,,,,,,,,,,,,,,,,,,,,,,,,,,,,,,,,,,,,,,,,
83,1729315169.2925994,1098,0,33.70730799180108,73.01984886728103,1.25,,,,,,,,,,,,,,,,,,,,,,,,,,,,,,,,,,,,,,,,,,,,,,,,,,,,,,,,,,,,,,,,,,,,,,,,
84,1729315169.2926228,1101,0,33.70730799180108,73.01984886728103,1.25,,,,,,,,,,,,,,,,,,,,,,,,,,,,,,,,,,,,,,,,,,,,,,,,,,,,,,,,,,,,,,,,,,,,,,,,
85,1729315169.2927525,1121,0,33.70730799180108,73.01984886728103,1.25,1729315146.9360027,14921,1729315146,0.1519999951124191,0.01,0,-0.01,1729315146.6059132,14906,1729315145,0.7045797122536493,-0.765389674,0.256,0.024727824,0.020101032,-0.748414874,0.04,-0.04,0,1729315146.606716,14910,1729315145,0.024682721,0.020004609,-0.748738493,0.662103654,-0.000624755,-0.000778016,-0.004648181,1729315146.7265203,14918,1729315146,1000,1000,1000,1000,0,1729315147.2247508,14923,1729315147,0.061030161,0.061005928,187,0,557.9500122070312,-0.001719339,1729315145,511.7974684334674,73.0198335,33.7073197,8,,,,,,,,,,,,,,,,,,,,,
86,1729315169.292866,1174,0,33.70730799180108,73.01984886728103,1.25,,,,,,,,,,,,,,,,,,,,,,,,,,,,,,,,,,,,,,,,,,,,,,,,,,,,,,,,,,,,,,,,,,,,,,,,
87,1729315169.2928786,1185,0,33.70730799180108,73.01984886728103,1.25,,,,,,,,,,,,,,,,,,,,,,,,,,,,,,,,,,,,,,,,,,,,,,,,,,,,,,,,,,,,,,,,,,,,,,,,
88,1729315169.299875,1247,0,33.70730799180108,73.01984886728103,1.25,,,,,,,,,,,,,,,,,,,,,,,,,,,,,,,,,,,,,,,,,,,,,,,,,,,,,,,,,,,,,,,,,,,,,,,,
89,1729315169.3000455,1249,0,33.70730799180108,73.01984886728103,1.25,,,,,,,,,,,,,,,,,,,,,,,,,,,,,,,,,,,,,,,,,,,,,,,,,,,,,,,,,,,,,,,,,,,,,,,,
90,1729315169.300065,1252,0,33.70730799180108,73.01984886728103,1.25,,,,,,,,,,,,,,,,,,,,,,,,,,,,,,,,,,,,,,,,,,,,,,,,,,,,,,,,,,,,,,,,,,,,,,,,
91,1729315169.3001523,1254,0,33.70730799180108,73.01984886728103,1.25,,,,,,,,,,,,,,,,,,,,,,,,,,,,,,,,,,,,,,,,,,,,,,,,,,,,,,,,,,,,,,,,,,,,,,,,
92,1729315169.3002603,1264,0,33.70730799180108,73.01984886728103,1.25,,,,,,,,,,,,,,,,,,,,,,,,,,,,,,,,,,,,,,,,,,,,,,,,,,,,,,,,,,,,,,,,,,,,,,,,
93,1729315169.3002784,1274,0,33.70730799180108,73.01984886728103,1.25,,,,,,,,,,,,,,,,,,,,,,,,,,,,,,,,,,,,,,,,,,,,,,,,,,,,,,,,,,,,,,,,,,,,,,,,
94,1729315169.300367,1276,0,33.70730799180108,73.01984886728103,1.25,,,,,,,,,,,,,,,,,,,,,,,,,,,,,,,,,,,,,,,,,,,,,,,,,,,,,,,,,,,,,,,,,,,,,,,,
95,1729315169.300552,1283,0,33.70730799180108,73.01984886728103,1.25,,,,,,,,,,,,,,,,,,,,,,,,,,,,,,,,,,,,,,,,,,,,,,,,,,,,,,,,,,,,,,,,,,,,,,,,
96,1729315169.300572,1285,0,33.70730799180108,73.01984886728103,1.25,,,,,,,,,,,,,,,,,,,,,,,,,,,,,,,,,,,,,,,,,,,,,,,,,,,,,,,,,,,,,,,,,,,,,,,,
97,1729315169.3012316,1287,0,33.70730799180108,73.01984886728103,1.25,,,,,,,,,,,,,,,,,,,,,,,,,,,,,,,,,,,,,,,,,,,,,,,,,,,,,,,,,,,,,,,,,,,,,,,,
98,1729315169.301262,1289,0,33.70730799180108,73.01984886728103,1.25,,,,,,,,,,,,,,,,,,,,,,,,,,,,,,,,,,,,,,,,,,,,,,,,,,,,,,,,,,,,,,,,,,,,,,,,
99,1729315169.3013425,1291,0,33.70730799180108,73.01984886728103,1.25,,,,,,,,,,,,,,,,,,,,,,,,,,,,,,,,,,,,,,,,,,,,,,,,,,,,,,,,,,,,,,,,,,,,,,,,
100,1729315169.3013558,1310,0,33.70730799180108,73.01984886728103,1.25,,,,,,,,,,,,,,,,,,,,,,,,,,,,,,,,,,,,,,,,,,,,,,,,,,,,,,,,,,,,,,,,,,,,,,,,
101,1729315169.3015213,1329,0,33.70730799180108,73.01984886728103,1.25,,,,,,,,,,,,,,,,,,,,,,,,,,,,,,,,,,,,,,,,,,,,,,,,,,,,,,,,,,,,,,,,,,,,,,,,
102,1729315169.3015895,1332,0,33.70730799180108,73.01984886728103,1.25,1729315147.0360272,14922,1729315147,0.1739999949932098,0.01,0,-0.01,1729315146.6169176,14907,1729315145,0.7138504975943067,-0.765389673,0.259,0.024716239,0.020101507,-0.748487559,0.04,-0.04,0,1729315146.606861,14911,1729315146,0.024641282,0.020016244,-0.748846317,0.6619828934024982,-0.000794265,-0.00052691,-0.004304069,1729315146.8233476,14919,1729315146,1000,1000,1000,1000,0,1729315147.3254008,14924,1729315147,0.059856549,0.059834771,187,0,557.9500122070312,-0.001614631,1729315145,511.7974688652338,73.0198336,33.7073197,8,,,,,,,,,,,,,,,,,,,,,
103,1729315169.301944,1343,0,33.70730799180108,73.01984886728103,1.25,,,,,,,,,,,,,,,,,,,,,,,,,,,,,,,,,,,,,,,,,,,,,,,,,,,,,,,,,,,,,,,,,,,,,,,,
104,1729315169.3020356,1361,0,33.70730799180108,73.01984886728103,1.25,,,,,,,,,,,,,,,,,,,,,,,,,,,,,,,,,,,,,,,,,,,,,,,,,,,,,,,,,,,,,,,,,,,,,,,,
105,1729315169,1376,0,33.70730799180108,73.01984886728103,1.25,,,,,,,,,,,,,,,,,,,,,,,,,,,,,,,,,,,,,,,,,,,,,,,,,,,,1729315169.435624,2741,1729315169,33.7073077,73.0198488,559.0299682617188,1.5707963705062866,,,,,,,,,,,,,,
106,1729315169.3093925,1390,0,33.70730799180108,73.01984886728103,1.25,,,,,,,,,,,,,,,,,,,,,,,,,,,,,,,,,,,,,,,,,,,,,,,,,,,,,,,,,,,,,,,,,,,,,,,,
107,1729315169.3095706,1392,0,33.70730799180108,73.01984886728103,1.25,,,,,,,,,,,,,,,,,,,,,,,,,,,,,,,,,,,,,,,,,,,,,,,,,,,,,,,,,,,,,,,,,,,,,,,,
108,1729315169.3113284,1406,0,33.70730799180108,73.01984886728103,1.25,,,,,,,,,,,,,,,,,,,,,,,,,,,,,,,,,,,,,,,,,,,,,,,,,,,,,,,,,,,,,,,,,,,,,,,,
109,1729315169.3174434,1422,0,33.70730799180108,73.01984886728103,1.25,,,,,,,,,,,,,,,,,,,,,,,,,,,,,,,,,,,,,,,,,,,,,,,,,,,,,,,,,,,,,,,,,,,,,,,,
110,1729315169.3174696,1424,0,33.70730799180108,73.01984886728103,1.25,,,,,,,,,,,,,,,,,,,,,,,,,,,,,,,,,,,,,,,,,,,,,,,,,,,,,,,,,,,,,,,,,,,,,,,,
111,1729315169.3225613,1432,0,33.70730799180108,73.01984886728103,1.25,,,,,,,,,,,,,,,,,,,,,,,,,,,,,,,,,,,,,,,,,,,,,,,,,,,,,,,,,,,,,,,,,,,,,,,,
112,1729315169.3226354,1438,0,33.70730799239201,73.01984897288446,1.25,,,,,,,,,,,,,,,,,,,,,,,,,,,,,,,,,,,,,,,,,,,,,,,,,,,,,,,,,,,,,,,,,,,,,,,,
113,1729315169.322731,1441,0,33.70730799239201,73.01984897288446,1.25,,,,,,,,,,,,,,,,,,,,,,,,,,,,,,,,,,,,,,,,,,,,,,,,,,,,,,,,,,,,,,,,,,,,,,,,
114,1729315169.3309872,1443,0,33.70730799239201,73.01984897288446,1.25,,,,,,,,,,,,,,,,,,,,,,,,,,,,,,,,,,,,,,,,,,,,,,,,,,,,,,,,,,,,,,,,,,,,,,,,
115,1729315169.3310726,1447,0,33.70730799239201,73.01984897288446,1.25,,,,,,,,,,,,,,,,,,,,,,,,,,,,,,,,,,,,,,,,,,,,,,,,,,,,,,,,,,,,,,,,,,,,,,,,
116,1729315169.3311856,1453,0,33.70730799239201,73.01984897288446,1.25,,,,,,,,,,,,,,,,,,,,,,,,,,,,,,,,,,,,,,,,,,,,,,,,,,,,,,,,,,,,,,,,,,,,,,,,
117,1729315169.4610908,1465,0,33.70730799239201,73.01984897288446,1.25,,,,,,,,,,,,,,,,,,,,,,,,,,,,,,,,,,,,,,,,,,,,,,,,,,,,,,,,,,,,,,,,,,,,,,,,
118,1729315169.4611812,1473,0,33.70730799239201,73.01984897288446,1.25,,,,,,,,,,,,,,,,,,,,,,,,,,,,,,,,,,,,,,,,,,,,,,,,,,,,,,,,,,,,,,,,,,,,,,,,
119,1729315169.4611957,1480,0,33.70730799239201,73.01984897288446,1.25,1729315147.1340308,14923,1729315147,0.1759999990463256,0.01,0,-0.01,1729315146.6169622,14908,1729315145,0.7138504985589993,-0.776482278,0.259,0.024709893,0.020045442,-0.748565712,0.04,-0.04,0,1729315146.6200397,14912,1729315146,0.024643742,0.019985954,-0.748935194,0.6618831642532406,6.80377270327881e-05,-6.00E-05,-0.004061989,1729315146.9244597,14920,1729315146,1000,1000,1000,1000,0,1729315147.4252105,14925,1729315147,0.060092751,0.060076624,187,0,557.9400024414062,-0.001391597,1729315145,511.7974681931156,73.0198336,33.7073196,8,,,,,,,,,,,,,,,,,,,,,
120,1729315169.461208,1495,0,33.70730799239201,73.01984897288446,1.25,,,,,,,,,,,,,,,,,,,,,,,,,,,,,,,,,,,,,,,,,,,,,,,,,,,,,,,,,,,,,,,,,,,,,,,,
121,1729315169.4613235,1509,0,33.70730799239201,73.01984897288446,1.25,,,,,,,,,,,,,,,,,,,,,,,,,,,,,,,,,,,,,,,,,,,,,,,,,,,,,,,,,,,,,,,,,,,,,,,,
122,1729315169.4613376,1514,0,33.70730799239201,73.01984897288446,1.25,,,,,,,,,,,,,,,,,,,,,,,,,,,,,,,,,,,,,,,,,,,,,,,,,,,,,,,,,,,,,,,,,,,,,,,,
123,1729315169.4614062,1524,0,33.70730799239201,73.01984897288446,1.25,,,,,,,,,,,,,,,,,,,,,,,,,,,,,,,,,,,,,,,,,,,,,,,,,,,,,,,,,,,,,,,,,,,,,,,,
124,1729315169.4614303,1539,0,33.70730799239201,73.01984897288446,1.25,,,,,,,,,,,,,,,,,,,,,,,,,,,,,,,,,,,,,,,,,,,,,,,,,,,,,,,,,,,,,,,,,,,,,,,,
125,1729315169.4614456,1553,0,33.70730799239201,73.01984897288446,1.25,,,,,,,,,,,,,,,,,,,,,,,,,,,,,,,,,,,,,,,,,,,,,,,,,,,,,,,,,,,,,,,,,,,,,,,,
126,1729315169.461458,1567,0,33.70730799239201,73.01984897288446,1.25,,,,,,,,,,,,,,,,,,,,,,,,,,,,,,,,,,,,,,,,,,,,,,,,,,,,,,,,,,,,,,,,,,,,,,,,
127,1729315169.4614704,1569,0,33.70730799239201,73.01984897288446,1.25,,,,,,,,,,,,,,,,,,,,,,,,,,,,,,,,,,,,,,,,,,,,,,,,,,,,,,,,,,,,,,,,,,,,,,,,
128,1729315169.4615235,1583,0,33.70730799239201,73.01984897288446,1.25,,,,,,,,,,,,,,,,,,,,,,,,,,,,,,,,,,,,,,,,,,,,,,,,,,,,,,,,,,,,,,,,,,,,,,,,
129,1729315169.4615357,1595,0,33.70730799239201,73.01984897288446,1.25,,,,,,,,,,,,,,,,,,,,,,,,,,,,,,,,,,,,,,,,,,,,,,,,,,,,,,,,,,,,,,,,,,,,,,,,
130,1729315169.4615457,1597,0,33.70730799239201,73.01984897288446,1.25,,,,,,,,,,,,,,,,,,,,,,,,,,,,,,,,,,,,,,,,,,,,,,,,,,,,,,,,,,,,,,,,,,,,,,,,
131,1729315169.4646466,1612,0,33.70730799239201,73.01984897288446,1.25,,,,,,,,,,,,,,,,,,,,,,,,,,,,,,,,,,,,,,,,,,,,,,,,,,,,,,,,,,,,,,,,,,,,,,,,
132,1729315169.4646747,1626,0,33.70730799239201,73.01984897288446,1.25,,,,,,,,,,,,,,,,,,,,,,,,,,,,,,,,,,,,,,,,,,,,,,,,,,,,,,,,,,,,,,,,,,,,,,,,
133,1729315169.4647422,1641,0,33.70730799239201,73.01984897288446,1.25,,,,,,,,,,,,,,,,,,,,,,,,,,,,,,,,,,,,,,,,,,,,,,,,,,,,,,,,,,,,,,,,,,,,,,,,
134,1729315169.4648154,2093,0,33.70730799239201,73.01984897288446,1.25,,,,,,,,,,,,,,,,,,,,,,,,,,,,,,,,,,,,,,,,,,,,,,,,,,,,,,,,,,,,,,,,,,,,,,,,
135,1729315169.464904,2094,0,33.70730799239201,73.01984897288446,1.25,,,,,,,,,,,,,,,,,,,,,,,,,,,,,,,,,,,,,,,,,,,,,,,,,,,,,,,,,,,,,,,,,,,,,,,,
136,1729315169.4703429,2131,0,33.707307995954736,73.01984921,1.25,1729315147.238042,14924,1729315147,0.1710000038146972,0.01,0,-0.01,1729315146.6169865,14909,1729315145,0.7138504985589993,-0.776482278,0.258,0.024711111,0.019988376,-0.748642431,0.04,-0.04,0,1729315146.6200604,14913,1729315146,0.024653491,0.019954882,-0.749024525,0.6617826453957728,0.000495494,0.000222442,-0.004539338,1729315147.0244231,14921,1729315147,1000,1000,1000,1000,0,1729315147.5232446,14926,1729315147,0.059174962,0.059116751,187,0,557.9400024414062,-0.002623837,1729315145,511.7974681931156,73.0198336,33.7073196,8,,,,,,,,,,,,,,,,,,,,,
137,1729315169.6271875,2909,0,33.707308197747075,73.01984952330986,1.25,,,,,,,,,,,,,,,,,,,,,,,,,,,,,,,,,,,,,,,,,,,,,,,,,,,,,,,,,,,,,,,,,,,,,,,,
138,1729315169.6376626,3044,0,33.707308197747075,73.01984952330986,1.25,,,,,,,,,,,,,,,,,,,,,,,,,,,,,,,,,,,,,,,,,,,,,,,,,,,,,,,,,,,,,,,,,,,,,,,,
139,1729315169.6378443,3046,0,33.707308197747075,73.01984952330986,1.25,,,,,,,,,,,,,,,,,,,,,,,,,,,,,,,,,,,,,,,,,,,,,,,,,,,,,,,,,,,,,,,,,,,,,,,,
140,1729315169.6390092,3048,0,33.707308197747075,73.01984952330986,1.25,,,,,,,,,,,,,,,,,,,,,,,,,,,,,,,,,,,,,,,,,,,,,,,,,,,,1729315169.5386972,2742,1729315169,33.7073077,73.0198488,559.0299682617188,1.5707963705062866,,,,,,,,,,,,,,
141,1729315169.6390314,3050,0,33.707308197747075,73.01984952330986,1.25,,,,,,,,,,,,,,,,,,,,,,,,,,,,,,,,,,,,,,,,,,,,,,,,,,,,,,,,,,,,,,,,,,,,,,,,
142,1729315169.6390707,3053,0,33.707308197747075,73.01984952330986,1.25,,,,,,,,,,,,,,,,,,,,,,,,,,,,,,,,,,,,,,,,,,,,,,,,,,,,,,,,,,,,,,,,,,,,,,,,
143,1729315169.639105,3057,0,33.707308197747075,73.01984952330986,1.25,,,,,,,,,,,,,,,,,,,,,,,,,,,,,,,,,,,,,,,,,,,,,,,,,,,,,,,,,,,,,,,,,,,,,,,,
144,1729315169.6391792,3203,0,33.707308197747075,73.01984952330986,1.25,,,,,,,,,,,,,,,,,,,,,,,,,,,,,,,,,,,,,,,,,,,,,,,,,,,,,,,,,,,,,,,,,,,,,,,,
145,1729315169.6392455,3233,0,33.707308197747075,73.01984952330986,1.25,,,,,,,,,,,,,,,,,,,,,,,,,,,,,,,,,,,,,,,,,,,,,,,,,,,,,,,,,,,,,,,,,,,,,,,,
146,1729315169.6393082,3263,0,33.707308197747075,73.01984952330986,1.25,,,,,,,,,,,,,,,,,,,,,,,,,,,,,,,,,,,,,,,,,,,,,,,,,,,,,,,,,,,,,,,,,,,,,,,,
147,1729315169.6393738,3278,0,33.707308197747075,73.01984952330986,1.25,,,,,,,,,,,,,,,,,,,,,,,,,,,,,,,,,,,,,,,,,,,,,,,,,,,,,,,,,,,,,,,,,,,,,,,,
148,1729315169.6394384,3293,0,33.707308197747075,73.01984952330986,1.25,,,,,,,,,,,,,,,,,,,,,,,,,,,,,,,,,,,,,,,,,,,,,,,,,,,,,,,,,,,,,,,,,,,,,,,,
149,1729315169.6395028,3308,0,33.707308197747075,73.01984952330986,1.25,,,,,,,,,,,,,,,,,,,,,,,,,,,,,,,,,,,,,,,,,,,,,,,,,,,,,,,,,,,,,,,,,,,,,,,,
150,1729315169.6395583,3322,0,33.707308197747075,73.01984952330986,1.25,,,,,,,,,,,,,,,,,,,,,,,,,,,,,,,,,,,,,,,,,,,,,,,,,,,,,,,,,,,,,,,,,,,,,,,,
151,1729315169.6395755,3337,0,33.707308197747075,73.01984952330986,1.25,,,,,,,,,,,,,,,,,,,,,,,,,,,,,,,,,,,,,,,,,,,,,,,,,,,,,,,,,,,,,,,,,,,,,,,,
152,1729315169.6396012,3345,0,33.707308197747075,73.01984952330986,1.25,,,,,,,,,,,,,,,,,,,,,,,,,,,,,,,,,,,,,,,,,,,,,,,,,,,,,,,,,,,,,,,,,,,,,,,,
153,1729315169.6396368,3352,0,33.707308197747075,73.01984952330986,1.25,1729315147.3357327,14925,1729315147,0.1669999957084655,0.01,0,-0.01,1729315146.6170087,14910,1729315145,0.7231212855967254,-0.776482278,0.264,0.024682721,0.020004609,-0.748738493,0.05,-0.04,0,1729315146.6200738,14914,1729315146,0.024655091,0.019926906,-0.749115434,0.6616805204532535,-0.000249781,0.000107666,-0.003210486,1729315147.1243556,14922,1729315147,1000,1000,1000,1000,0,1729315147.6240678,14927,1729315147,0.05830653,0.058056135,187,0,557.9299926757812,-0.005397763,1729315145,511.8074686,73.0198337,33.7073196,8,,,,,,,,,,,,,,,,,,,,,
154,1729315169.6396532,3367,0,33.707308197747075,73.01984952330986,1.25,,,,,,,,,,,,,,,,,,,,,,,,,,,,,,,,,,,,,,,,,,,,,,,,,,,,,,,,,,,,,,,,,,,,,,,,
155,1729315169.6396728,3382,0,33.707308197747075,73.01984952330986,1.25,,,,,,,,,,,,,,,,,,,,,,,,,,,,,,,,,,,,,,,,,,,,,,,,,,,,,,,,,,,,,,,,,,,,,,,1729315157.839746,5.9
156,1729315169.6397028,3386,0,33.707308197747075,73.01984952330986,1.25,,,,,,,,,,,,,,,,,,,,,,,,,,,,,,,,,,,,,,,,,,,,,,,,,,,,,,,,,,,,,,,,,,,,,,,,
157,1729315169.639722,3396,0,33.707308197747075,73.01984952330986,1.25,,,,,,,,,,,,,,,,,,,,,,,,,,,,,,,,,,,,,,,,,,,,,,,,,,,,,,,,,,,,,,,,,,,,,,,,
158,1729315169.6398053,3412,0,33.707308197747075,73.01984952330986,1.25,,,,,,,,,,,,,,,,,,,,,,,,,,,,,,,,,,,,,,,,,,,,,,,,,,,,,,,,,,,,,,,,,,,,,,,,
159,1729315169.6398172,3427,0,33.707308197747075,73.01984952330986,1.25,,,,,,,,,,,,,,,,,,,,,,,,,,,,,,,,,,,,,,,,,,,,,,,,,,,,,,,,,,,1729315147.178954,2002,1,0,0,1,5,,,,,,,
160,1729315169.639931,3442,0,33.707308197747075,73.01984952330986,1.25,,,,,,,,,,,,,,,,,,,,,,,,,,,,,,,,,,,,,,,,,,,,,,,,,,,,,,,,,,,,,,,,,,,,,,,,
161,1729315169.6412249,3457,0,33.70730829714882,73.01984961770754,1.25,,,,,,,,,,,,,,,,,,,,,,,,,,,,,,,,,,,,,,,,,,,,,,,,,,,,,,,,,,,,,,,,,,,,,,,,
162,1729315169.6413662,3506,0,33.70730829714882,73.01984961770754,1.25,,,,,,,,,,,,,,,,,,,,,,,,,,,,,,,,,,,,,,,,,,,,,,,,,,,,,,,,,,,,,,,,,,,,,,,,
163,1729315169.6422284,3507,0,33.70730829714882,73.01984961770754,1.25,,,,,,,,,,,,,,,,,,,,,,,,,,,,,,,,,,,,,,,,,,,,,,,,,,,,,,,,,,,,,,,,,,,,,,,,
164,1729315169.650554,3619,0,33.70730829714882,73.01984961770754,1.25,,,,,,,,,,,,,,,,,,,,,,,,,,,,,,,,,,,,,,,,,,,,,,,,,,,,,,,,,,,,,,,,,,,,,,,,
165,1729315169.7996104,4184,0,33.70730829714882,73.01984961770754,1.25,,,,,,,,,,,,,,,,,,,,,,,,,,,,,,,,,,,,,,,,,,,,,,,,,,,,,,,,,,,,,,,,,,,,,,,,
166,1729315169.8058505,4200,0,33.707308208041944,73.01984982,1.25,,,,,,,,,,,,,,,,,,,,,,,,,,,,,,,,,,,,,,,,,,,,,,,,,,,,,,,,,,,,,,,,,,,,,,,,
167,1729315169.806073,4205,0,33.707308208041944,73.01984982,1.25,,,,,,,,,,,,,,,,,,,,,,,,,,,,,,,,,,,,,,,,,,,,,,,,,,,,,,,,,,,,,,,,,,,,,,,,
168,1729315169.806234,4209,0,33.707308208041944,73.01984982,1.25,,,,,,,,,,,,,,,,,,,,,,,,,,,,,,,,,,,,,,,,,,,,,,,,,,,,,,,,,,,,,,,,,,,,,,,,
169,1729315169.806457,4232,0,33.707308208041944,73.01984982,1.25,,,,,,,,,,,,,,,,,,,,,,,,,,,,,,,,,,,,,,,,,,,,,,,,,,,,,,,,,,,,,,,,,,,,,,,,
170,1729315169.807922,4843,0,33.707308208041944,73.01984982,1.25,1729315147.4344811,14926,1729315147,0.1570000052452087,0.01,0,-0.01,1729315146.617046,14911,1729315146,0.7231212876890523,-0.787574884,0.27,0.024641282,0.020016244,-0.748846317,0.05,-0.04,0,1729315146.620103,14915,1729315146,0.024653869,0.019923815,-0.749187077,0.6615995400657211,-0.000174644,0.000324949,-0.003467465,1729315147.227296,14923,1729315147,1000,1000,1000,1000,0,1729315147.7234695,14928,1729315147,0.057785753,0.057292085,187,0,557.9299926757812,-0.007537177,1729315146,511.8174679527638,73.0198337,33.7073195,8,,,,,,,,,,,,,,,,,,,,,
171,1729315169.8189497,4953,0,33.707308208041944,73.01984982,1.25,,,,,,,,,,,,,,,,,,,,,,,,,,,,,,,,,,,,,,,,,,,,,,,,,,,,,,,,,,,,,,,,,,,,,,,,
172,1729315169.821622,4959,0,33.70730801919851,73.01985011931066,1.25,,,,,,,,,,,,,,,,,,,,,,,,,,,,,,,,,,,,,,,,,,,,,,,,,,,,,,,,,,,,,,,,,,,,,,,,
173,1729315169.8240106,4964,0,33.70730801919851,73.01985011931066,1.25,,,,,,,,,,,,,,,,,,,,,,,,,,,,,,,,,,,,,,,,,,,,,,,,,,,,,,,,,,,,,,,,,,,,,,,,
174,1729315169.8240793,4968,0,33.70730801919851,73.01985011931066,1.25,,,,,,,,,,,,,,,,,,,,,,,,,,,,,,,,,,,,,,,,,,,,,,,,,,,,,,,,,,,,,,,,,,,,,,,,
175,1729315169.8278136,4974,0,33.70730801919851,73.01985011931066,1.25,,,,,,,,,,,,,,,,,,,,,,,,,,,,,,,,,,,,,,,,,,,,,,,,,,,,1729315169.6437747,2743,1729315169,33.7073077,73.0198488,559.0299682617188,1.5707963705062866,,,,,,,,,,,,,,
176,1729315169.8280995,4975,0,33.70730801919851,73.01985011931066,1.25,,,,,,,,,,,,,,,,,,,,,,,,,,,,,,,,,,,,,,,,,,,,,,,,,,,,,,,,,,,,,,,,,,,,,,,,
177,1729315169.8307748,4984,0,33.70730801919851,73.01985011931066,1.25,,,,,,,,,,,,,,,,,,,,,,,,,,,,,,,,,,,,,,,,,,,,,,,,,,,,,,,,,,,,,,,,,,,,,,,,
178,1729315169.8350012,5014,0,33.70730801919851,73.01985011931066,1.25,,,,,,,,,,,,,,,,,,,,,,,,,,,,,,,,,,,,,,,,,,,,,,,,,,,,,,,,,,,,,,,,,,,,,,,,
179,1729315169.837994,5015,0,33.70730801919851,73.01985011931066,1.25,,,,,,,,,,,,,,,,,,,,,,,,,,,,,,,,,,,,,,,,,,,,,,,,,,,,,,,,,,,,,,,,,,,,,,,,
180,1729315169.8408728,5034,0,33.70730801919851,73.01985011931066,1.25,,,,,,,,,,,,,,,,,,,,,,,,,,,,,,,,,,,,,,,,,,,,,,,,,,,,,,,,,,,,,,,,,,,,,,,,
181,1729315169.9768014,5056,0,33.70730801919851,73.01985011931066,1.25,,,,,,,,,,,,,,,,,,,,,,,,,,,,,,,,,,,,,,,,,,,,,,,,,,,,,,,,,,,,,,,,,,,,,,,,
182,1729315169.9808388,5071,0,33.70730801919851,73.01985011931066,1.25,,,,,,,,,,,,,,,,,,,,,,,,,,,,,,,,,,,,,,,,,,,,,,,,,,,,,,,,,,,,,,,,,,,,,,,,
183,1729315169.9808877,5094,0,33.70730801919851,73.01985011931066,1.25,,,,,,,,,,,,,,,,,,,,,,,,,,,,,,,,,,,,,,,,,,,,,,,,,,,,,,,,,,,,,,,,,,,,,,,,
184,1729315169.981002,5110,0,33.70730801919851,73.01985011931066,1.25,,,,,,,,,,,,,,,,,,,,,,,,,,,,,,,,,,,,,,,,,,,,,,,,,,,,,,,,,,,,,,,,,,,,,,,,
185,1729315169.9810526,5125,0,33.70730801919851,73.01985011931066,1.25,,,,,,,,,,,,,,,,,,,,,,,,,,,,,,,,,,,,,,,,,,,,,,,,,,,,,,,,,,,,,,,,,,,,,,,,
186,1729315169.9810932,5128,0,33.70730801919851,73.01985011931066,1.25,,,,,,,,,,,,,,,,,,,,,,,,,,,,,,,,,,,,,,,,,,,,,,,,,,,,,,,,,,,,,,,,,,,,,,,,
187,1729315169.9812388,5139,0,33.70730801919851,73.01985011931066,1.25,1729315147.5345025,14927,1729315147,0.1539999991655349,0.01,0,-0.01,1729315146.617082,14912,1729315146,0.7323920727577256,-0.787574883,0.27,0.024643742,0.019985954,-0.748935194,0.05,-0.04,0,1729315146.6201923,14916,1729315146,0.024623777,0.019863209,-0.749283712,0.6614930396967994,0.001005608,-0.000683678,-0.005232931,1729315147.3253698,14924,1729315147,1000,1000,1000,1000,0,1729315147.8236177,14929,1729315147,0.057921447,0.057518397,187,0,557.9299926757812,-0.006821193,1729315146,511.8174683845302,73.0198338,33.7073195,8,,,,,,,,,,,,,,,,,,,,,
188,1729315169.9813936,5154,0,33.70730801919851,73.01985011931066,1.25,,,,,,,,,,,,,,,,,,,,,,,,,,,,,,,,,,,,,,,,,,,,,,,,,,,,,,,,,,,,,,,,,,,,,,,,
189,1729315169.9814255,5169,0,33.70730801919851,73.01985011931066,1.25,,,,,,,,,,,,,,,,,,,,,,,,,,,,,,,,,,,,,,,,,,,,,,,,,,,,,,,,,,,,,,,,,,,,,,,,
190,1729315169.9815826,5183,0,33.70730801919851,73.01985011931066,1.25,,,,,,,,,,,,,,,,,,,,,,,,,,,,,,,,,,,,,,,,,,,,,,,,,,,,,,,,,,,,,,,,,,,,,,,,
191,1729315169.9816272,5198,0,33.70730801919851,73.01985011931066,1.25,,,,,,,,,,,,,,,,,,,,,,,,,,,,,,,,,,,,,,,,,,,,,,,,,,,,,,,,,,,,,,,,,,,,,,,,
192,1729315169.981735,5212,0,33.70730801919851,73.01985011931066,1.25,,,,,,,,,,,,,,,,,,,,,,,,,,,,,,,,,,,,,,,,,,,,,,,,,,,,,,,,,,,,,,,,,,,,,,,,
193,1729315169.9817698,5227,0,33.70730801919851,73.01985011931066,1.25,,,,,,,,,,,,,,,,,,,,,,,,,,,,,,,,,,,,,,,,,,,,,,,,,,,,,,,,,,,,,,,,,,,,,,,,
194,1729315169.9819102,5242,0,33.70730801919851,73.01985011931066,1.25,,,,,,,,,,,,,,,,,,,,,,,,,,,,,,,,,,,,,,,,,,,,,,,,,,,,,,,,,,,,,,,,,,,,,,,,
195,1729315169.9819517,5256,0,33.70730801919851,73.01985011931066,1.25,,,,,,,,,,,,,,,,,,,,,,,,,,,,,,,,,,,,,,,,,,,,,,,,,,,,,,,,,,,,,,,,,,,,,,,,
196,1729315169.9837112,5271,0,33.70730801919851,73.01985011931066,1.25,,,,,,,,,,,,,,,,,,,,,,,,,,,,,,,,,,,,,,,,,,,,,,,,,,,,,,,,,,,,,,,,,,,,,,,,
197,1729315169.983858,5286,0,33.70730801919851,73.01985011931066,1.25,,,,,,,,,,,,,,,,,,,,,,,,,,,,,,,,,,,,,,,,,,,,,,,,,,,,,,,,,,,,,,,,,,,,,,,,
198,1729315169.9840117,5300,0,33.70730801919851,73.01985011931066,1.25,,,,,,,,,,,,,,,,,,,,,,,,,,,,,,,,,,,,,,,,,,,,,,,,,,,,,,,,,,,,,,,,,,,,,,,,
199,1729315169.9841533,5315,0,33.70730801919851,73.01985011931066,1.25,,,,,,,,,,,,,,,,,,,,,,,,,,,,,,,,,,,,,,,,,,,,,,,,,,,,,,,,,,,,,,,,,,,,,,,,
200,1729315169.984192,5329,0,33.70730801919851,73.01985011931066,1.25,,,,,,,,,,,,,,,,,,,,,,,,,,,,,,,,,,,,,,,,,,,,,,,,,,,,,,,,,,,,,,,,,,,,,,,,
201,1729315169.984351,5344,0,33.70730801919851,73.01985011931066,1.25,,,,,,,,,,,,,,,,,,,,,,,,,,,,,,,,,,,,,,,,,,,,,,,,,,,,,,,,,,,,,,,,,,,,,,,,
202,1729315169.9844377,5359,0,33.70730801919851,73.01985011931066,1.25,,,,,,,,,,,,,,,,,,,,,,,,,,,,,,,,,,,,,,,,,,,,,,,,,,,,,,,,,,,,,,,,,,,,,,,,
203,1729315169.9844751,5373,0,33.70730801919851,73.01985011931066,1.25,,,,,,,,,,,,,,,,,,,,,,,,,,,,,,,,,,,,,,,,,,,,,,,,,,,,,,,,,,,,,,,,,,,,,,,,
204,1729315169.9849994,5388,0,33.70730801919851,73.01985011931066,1.25,1729315148,14928,1729315147,0.164000005,0.01,0,-0.01,1729315146.6171055,14913,1729315146,0.7323920725947839,-0.798667485,0.269,0.024653491,0.019954882,-0.749024525,0.05,-0.03,0,1729315146.6212714,14917,1729315146,0.024581907,0.019793913,-0.749366927,0.661402404,-6.83E-05,-0.000346667,-0.002804818,1729315147.425975,14925,1729315147,1000,1000,1000,1000,0,1729315147.9270084,14930,1729315147,0.056009546,0.055522934,187,0,557.9299926757812,-0.007367013,1729315146,511.8074677,73.0198338,33.7073194,8,,,,,,,,,,,,,,,,,,,,,
205,1729315169.985051,5403,0,33.70730801919851,73.01985011931066,1.25,,,,,,,,,,,,,,,,,,,,,,,,,,,,,,,,,,,,,,,,,,,,,,,,,,,,,,,,,,,,,,,,,,,,,,,,
206,1729315169.9850883,5408,0,33.70730801919851,73.01985011931066,1.25,,,,,,,,,,,,,,,,,,,,,,,,,,,,,,,,,,,,,,,,,,,,,,,,,,,,,,,,,,,,,,,,,,,,,,,,
207,1729315169.985237,5432,0,33.70730802108354,73.01985013610334,1.25,,,,,,,,,,,,,,,,,,,,,,,,,,,,,,,,,,,,,,,,,,,,,,,,,,,,,,,,,,,,,,,,,,,,,,,,
208,1729315170.005159,6058,0,33.70730802108354,73.01985013610334,1.25,,,,,,,,,,,,,,,,,,,,,,,,,,,,,,,,,,,,,,,,,,,,,,,,,,,,,,,,,,,,,,,,,,,,,,,,
209,1729315170.150041,6634,0,33.70730802108354,73.01985013610334,1.25,,,,,,,,,,,,,,,,,,,,,,,,,,,,,,,,,,,,,,,,,,,,,,,,,,,,,,,,,,,,,,,,,,,,,,,,
210,1729315170.1552942,6920,0,33.707307816073055,73.01985039132022,1.25,,,,,,,,,,,,,,,,,,,,,,,,,,,,,,,,,,,,,,,,,,,,,,,,,,,,1729315169.7382567,2744,1729315169,33.7073078,73.0198488,559.0299682617188,1.5707963705062866,,,,,,,,,,,,,,
211,1729315170.155335,7027,0,33.707307816073055,73.01985039132022,1.25,,,,,,,,,,,,,,,,,,,,,,,,,,,,,,,,,,,,,,,,,,,,,,,,,,,,,,,,,,,,,,,,,,,,,,,,
212,1729315170.3237855,7409,0,33.70730771111457,73.01985044652878,1.25,,,,,,,,,,,,,,,,,,,,,,,,,,,,,,,,,,,,,,,,,,,,,,,,,,,,,,,,,,,,,,,,,,,,,,,,
213,1729315170.3321505,7410,0,33.70730771111457,73.01985044652878,1.25,,,,,,,,,,,,,,,,,,,,,,,,,,,,,,,,,,,,,,,,,,,,,,,,,,,,,,,,,,,,,,,,,,,,,,,,
214,1729315170.3322015,7608,0,33.70730771111457,73.01985044652878,1.25,,,,,,,,,,,,,,,,,,,,,,,,,,,,,,,,,,,,,,,,,,,,,,,,,,,,,,,,,,,,,,,,,,,,,,,,
215,1729315170.3328292,8102,0,33.70730761111457,73.01985054652874,1.25,,,,,,,,,,,,,,,,,,,,,,,,,,,,,,,,,,,,,,,,,,,,,,,,,,,,,,,,,,,,,,,,,,,,,,,,
216,1729315170.3423283,8406,0,33.707307793890074,73.01985196415158,1.2549999952316284,,,,,,,,,,,,,,,,,,,,,,,,,,,,,,,,,,,,,,,,,,,,,,,,,,,,,,,,,,,,,,,,,,,,,,,,
217,1729315170.3425543,8408,0,33.707307793890074,73.01985206415159,1.2549999952316284,,,,,,,,,,,,,,,,,,,,,,,,,,,,,,,,,,,,,,,,,,,,,,,,,,,,,,,,,,,,,,,,,,,,,,,,
218,1729315170.3461084,8455,0,33.707307793890074,73.01985206415159,1.2549999952316284,,,,,,,,,,,,,,,,,,,,,,,,,,,,,,,,,,,,,,,,,,,,,,,,,,,,,,,,,,,,,,,,,,,,,,,,
219,1729315170.3604646,8538,0,33.707307793890074,73.01985206415159,1.2549999952316284,,,,,,,,,,,,,,,,,,,,,,,,,,,,,,,,,,,,,,,,,,,,,,,,,,,,,,,,,,,,,,,,,,,,,,,,
220,1729315170.3628633,8543,0,33.707307793890074,73.01985206415159,1.2549999952316284,,,,,,,,,,,,,,,,,,,,,,,,,,,,,,,,,,,,,,,,,,,,,,,,,,,,,,,,,,,,,,,,,,,,,,,,
221,1729315170.494264,8559,0,33.707307793890074,73.01985206415159,1.2549999952316284,1729315147.7394462,14929,1729315147,0.1689999997615814,0.01,0,-0.01,1729315146.617131,14914,1729315146,0.7323920739450986,-0.798667487,0.27,0.024655091,0.019926906,-0.749115434,0.05,-0.04,0,1729315146.7212234,14918,1729315146,0.024590031,0.019769528,-0.749440242,0.6613197561986576,0.002125229,-0.000419448,-0.003422668,1729315147.5254428,14926,1729315147,1000,1000,1000,1000,0,1729315148.0238187,14931,1729315148,0.055661239,0.054859433,187,0,557.9199829101562,-0.009413548,1729315146,511.8174677,73.0198338,33.7073194,8,,,,,,,,,,,,,,,,,,,,,
222,1729315170.502311,8563,0,33.707307793890074,73.01985206415159,1.2549999952316284,,,,,,,,,,,,,,,,,,,,,,,,,,,,,,,,,,,,,,,,,,,,,,,,,,,,,,,,,,,,,,,,,,,,,,,,
223,1729315170.5023658,8576,0,33.707307793890074,73.01985206415159,1.2549999952316284,,,,,,,,,,,,,,,,,,,,,,,,,,,,,,,,,,,,,,,,,,,,,,,,,,,,,,,,,,,,,,,,,,,,,,,,
224,1729315170.502391,8578,0,33.707307793890074,73.01985206415159,1.2549999952316284,,,,,,,,,,,,,,,,,,,,,,,,,,,,,,,,,,,,,,,,,,,,,,,,,,,,,,,,,,,,,,,,,,,,,,,,
225,1729315170.5024104,8592,0,33.707307793890074,73.01985206415159,1.2549999952316284,,,,,,,,,,,,,,,,,,,,,,,,,,,,,,,,,,,,,,,,,,,,,,,,,,,,,,,,,,,,,,,,,,,,,,,,
226,1729315170.5024283,8607,0,33.707307793890074,73.01985206415159,1.2549999952316284,,,,,,,,,,,,,,,,,,,,,,,,,,,,,,,,,,,,,,,,,,,,,,,,,,,,,,,,,,,,,,,,,,,,,,,,
227,1729315170.5030673,8622,0,33.707307793890074,73.01985206415159,1.2549999952316284,,,,,,,,,,,,,,,,,,,,,,,,,,,,,,,,,,,,,,,,,,,,,,,,,,,,,,,,,,,,,,,,,,,,,,,,
228,1729315171,8636,0,33.707307793890074,73.01985206415159,1.2549999952316284,,,,,,,,,,,,,,,,,,,,,,,,,,,,,,,,,,,,,,,,,,,,,,,,,,,,,,,,,,,,,,,,,,,,,,,,
229,1729315170.5031316,8651,0,33.707307793890074,73.01985206415159,1.2549999952316284,,,,,,,,,,,,,,,,,,,,,,,,,,,,,,,,,,,,,,,,,,,,,,,,,,,,,,,,,,,,,,,,,,,,,,,,
230,1729315170.5032232,8666,0,33.707307793890074,73.01985206415159,1.2549999952316284,,,,,,,,,,,,,,,,,,,,,,,,,,,,,,,,,,,,,,,,,,,,,,,,,,,,,,,,,,,,,,,,,,,,,,,,
231,1729315170.503354,8680,0,33.707307793890074,73.01985206415159,1.2549999952316284,,,,,,,,,,,,,,,,,,,,,,,,,,,,,,,,,,,,,,,,,,,,,,,,,,,,,,,,,,,,,,,,,,,,,,,,
232,1729315170.5033758,8686,0,33.707307793890074,73.01985206415159,1.2549999952316284,,,,,,,,,,,,,,,,,,,,,,,,,,,,,,,,,,,,,,,,,,,,,,,,,,,,,,,,,,,,,,,,,,,,,,,,
233,1729315170.503405,8696,0,33.707307793890074,73.01985206415159,1.2549999952316284,,,,,,,,,,,,,,,,,,,,,,,,,,,,,,,,,,,,,,,,,,,,,,,,,,,,,,,,,,,,,,,,,,,,,,,,
234,1729315170.5034368,8710,0,33.707307793890074,73.01985206415159,1.2549999952316284,,,,,,,,,,,,,,,,,,,,,,,,,,,,,,,,,,,,,,,,,,,,,,,,,,,,,,,,,,,,,,,,,,,,,,,,
235,1729315170.5034704,8725,0,33.707307793890074,73.01985206415159,1.2549999952316284,,,,,,,,,,,,,,,,,,,,,,,,,,,,,,,,,,,,,,,,,,,,,,,,,,,,,,,,,,,,,,,,,,,,,,,,
236,1729315170.5034912,8730,0,33.707307793890074,73.01985206415159,1.2549999952316284,,,,,,,,,,,,,,,,,,,,,,,,,,,,,,,,,,,,,,,,,,,,,,,,,,,,,,,,,,,,,,,,,,,,,,,,
237,1729315170.5036168,8738,0,33.707307793890074,73.01985206415159,1.2549999952316284,,,,,,,,,,,,,,,,,,,,,,,,,,,,,,,,,,,,,,,,,,,,,,,,,,,,,,,,,,,,,,,,,,,,,,,,
238,1729315170.5036376,8740,0,33.707307793890074,73.01985206415159,1.2549999952316284,1729315147.8399012,14930,1729315147,0.1679999977350235,0.01,0,-0.01,1729315146.6171684,14915,1729315146,0.7323920746871107,-0.809760091,0.273,0.024653869,0.019923815,-0.749187077,0.05,-0.04,0,1729315146.821273,14919,1729315146,0.024587591,0.01978976,-0.74949194,0.6612606504132608,0.000401015,-0.000944262,-0.003455495,1729315147.6238492,14927,1729315147,1000,1000,1000,1000,0,1729315148.1235614,14932,1729315148,0.054200683,0.053337492,187,0,557.9199829101562,-0.009634567,1729315146,511.8174670402939,73.0198338,33.7073193,8,,,,,,,,,,,,,,,,,,,,,
239,1729315170.5036912,8754,0,33.707307793890074,73.01985206415159,1.2549999952316284,,,,,,,,,,,,,,,,,,,,,,,,,,,,,,,,,,,,,,,,,,,,,,,,,,,,,,,,,,,,,,,,,,,,,,,,
240,1729315170.503712,8764,0,33.707307793890074,73.01985206415159,1.2549999952316284,,,,,,,,,,,,,,,,,,,,,,,,,,,,,,,,,,,,,,,,,,,,,,,,,,,,,,,,,,,,,,,,,,,,,,,,
241,1729315170.5037313,8769,0,33.707307793890074,73.01985206415159,1.2549999952316284,,,,,,,,,,,,,,,,,,,,,,,,,,,,,,,,,,,,,,,,,,,,,,,,,,,,,,,,,,,,,,,,,,,,,,,,
242,1729315170.5037844,8780,0,33.707307793890074,73.01985206415159,1.2549999952316284,,,,,,,,,,,,,,,,,,,,,,,,,,,,,,,,,,,,,,,,,,,,,,,,,,,,,,,,,,,,,,,,,,,,,,,,
243,1729315170.5038052,8784,0,33.707307793890074,73.01985206415159,1.2549999952316284,,,,,,,,,,,,,,,,,,,,,,,,,,,,,,,,,,,,,,,,,,,,,,,,,,,,,,,,,,,,,,,,,,,,,,,,
244,1729315170.5038245,8834,0,33.70730836572608,73.01985560470763,1.258999943733215,,,,,,,,,,,,,,,,,,,,,,,,,,,,,,,,,,,,,,,,,,,,,,,,,,,,,,,,,,,,,,,,,,,,,,,,
245,1729315170.5086205,9419,0,33.70730836572608,73.01985560470763,1.258999943733215,,,,,,,,,,,,,,,,,,,,,,,,,,,,,,,,,,,,,,,,,,,,,,,,,,,,1729315169.8378346,2745,1729315169,33.7073078,73.0198488,559.0299682617188,1.5707963705062866,,,,,,,,,,,,,,
246,1729315170.508734,9420,0,33.70730836572608,73.01985560470763,1.258999943733215,,,,,,,,,,,,,,,,,,,,,,,,,,,,,,,,,,,,,,,,,,,,,,,,,,,,,,,,,,,,,,,,,,,,,,,,
247,1729315170.6734276,9748,0,33.707308669642124,73.01985732154738,1.258999943733215,,,,,,,,,,,,,,,,,,,,,,,,,,,,,,,,,,,,,,,,,,,,,,,,,,,,,,,,,,,,,,,,,,,,,,,,
248,1729315170.8444018,11886,0,33.70730797872173,73.01985509957724,1.256999969482422,,,,,,,,,,,,,,,,,,,,,,,,,,,,,,,,,,,,,,,,,,,,,,,,,,,,,,,,,,,,,,,,,,,,,,,,
249,1729315170.847365,11887,0,33.70730757925869,73.01985301382803,1.253999948501587,,,,,,,,,,,,,,,,,,,,,,,,,,,,,,,,,,,,,,,,,,,,,,,,,,,,,,,,,,,,,,,,,,,,,,,,
250,1729315170.8474224,12068,0,33.70730757925869,73.01985301382803,1.253999948501587,,,,,,,,,,,,,,,,,,,,,,,,,,,,,,,,,,,,,,,,,,,,,,,,,,,,,,,,,,,,,,,,,,,,,,,,
251,1729315170.8539264,12077,0,33.70730757925869,73.01985301382803,1.253999948501587,,,,,,,,,,,,,,,,,,,,,,,,,,,,,,,,,,,,,,,,,,,,,,,,,,,,,,,,,,,,,,,,,,,,,,,,
252,1729315170.854015,12106,0,33.70730757925869,73.01985301382803,1.253999948501587,,,,,,,,,,,,,,,,,,,,,,,,,,,,,,,,,,,,,,,,,,,,,,,,,,,,,,,,,,,,,,,,,,,,,,,,
253,1729315171.0167987,12571,0,33.70730757925869,73.01985301382803,1.253999948501587,,,,,,,,,,,,,,,,,,,,,,,,,,,,,,,,,,,,,,,,,,,,,,,,,,,,,,,,,,,,,,,,,,,,,,,,
254,1729315171.0255368,12656,0,33.70730757925869,73.01985301382803,1.253999948501587,,,,,,,,,,,,,,,,,,,,,,,,,,,,,,,,,,,,,,,,,,,,,,,,,,,,,,,,,,,,,,,,,,,,,,,,
255,1729315171.0256689,12686,0,33.707307479258695,73.01985301382801,1.253999948501587,1729315147.933662,14931,1729315147,0.1710000038146972,0.01,0,-0.01,1729315146.6171963,14916,1729315146,0.7323920746871107,-0.809760091,0.277,0.024623777,0.019863209,-0.749283712,0.05,-0.03,0,1729315146.9221034,14920,1729315146,0.024590827,0.019796257,-0.74953969,0.6612062103783543,2.225590287707746e-05,-0.000581086,-0.00336012,1729315147.725999,14928,1729315147,1000,1000,1000,1000,0,1729315148.2241666,14933,1729315148,0.053108063,0.052278094,187,0,557.9199829101562,-0.00935241,1729315146,511.8174670402939,73.0198338,33.7073193,8,,,,,,,,,,,,,,,,,,,,,
256,1729315171.025694,13263,0,33.70730722997706,73.01985121445331,1.253000020980835,,,,,,,,,,,,,,,,,,,,,,,,,,,,,,,,,,,,,,,,,,,,,,,,,,,,,,,,,,,,,,,,,,,,,,,,
257,1729315171.025775,13483,0,33.70730722997706,73.01985121445331,1.253000020980835,,,,,,,,,,,,,,,,,,,,,,,,,,,,,,,,,,,,,,,,,,,,,,,,,,,,,,,,,,,,,,,,,,,,,,,,
258,1729315171.0309048,13489,0,33.70730701710741,73.01985008165438,1.253000020980835,,,,,,,,,,,,,,,,,,,,,,,,,,,,,,,,,,,,,,,,,,,,,,,,,,,,,,,,,,,,,,,,,,,,,,,,
259,1729315171.189566,14009,0,33.70730701710741,73.01985008165438,1.253999948501587,,,,,,,,,,,,,,,,,,,,,,,,,,,,,,,,,,,,,,,,,,,,,,,,,,,,,,,,,,,,,,,,,,,,,,,,
260,1729315171.1937745,14281,0,33.70730701710741,73.01985008165438,1.253999948501587,,,,,,,,,,,,,,,,,,,,,,,,,,,,,,,,,,,,,,,,,,,,,,,,,,,,,,,,,,,,,,,,,,,,,,,,
261,1729315171.1960225,14870,0,33.70730698078133,73.01984962,1.2549999952316284,,,,,,,,,,,,,,,,,,,,,,,,,,,,,,,,,,,,,,,,,,,,,,,,,,,,,,,,,,,,,,,,,,,,,,,,
262,1729315171.228449,15139,0,33.70730700003672,73.01984977367793,1.256999969482422,,,,,,,,,,,,,,,,,,,,,,,,,,,,,,,,,,,,,,,,,,,,,,,,,,,,,,,,,,,,,,,,,,,,,,,,
263,1729315171.2311597,15140,0,33.70730700003672,73.01984977367793,1.256999969482422,,,,,,,,,,,,,,,,,,,,,,,,,,,,,,,,,,,,,,,,,,,,,,,,,,,,,,,,,,,,,,,,,,,,,,,,
264,1729315171.3637235,15157,0,33.70730700003672,73.01984977367793,1.256999969482422,,,,,,,,,,,,,,,,,,,,,,,,,,,,,,,,,,,,,,,,,,,,,,,,,,,,,,,,,,,,,,,,,,,,,,,,
265,1729315171.367917,15316,0,33.70730700003672,73.01984977367793,1.256999969482422,,,,,,,,,,,,,,,,,,,,,,,,,,,,,,,,,,,,,,,,,,,,,,,,,,,,,,,,,,,,,,,,,,,,,,,,
266,1729315171.3684678,16232,0,33.70730704,73.01985025125646,1.2610000371932983,,,,,,,,,,,,,,,,,,,,,,,,,,,,,,,,,,,,,,,,,,,,,,,,,,,,,,,,,,,,,,,,,,,,,,,,
267,1729315171.5383728,16673,0,33.70730704,73.01985025125646,1.2610000371932983,,,,,,,,,,,,,,,,,,,,,,,,,,,,,,,,,,,,,,,,,,,,,,,,,,,,,,,,,,,,,,,,,,,,,,,,
268,1729315171.552696,17471,0,33.70730697786265,73.01985053276161,1.2630000114440918,,,,,,,,,,,,,,,,,,,,,,,,,,,,,,,,,,,,,,,,,,,,,,,,,,,,,,,,,,,,,,,,,,,,,,,,
269,1729315171.5528991,17517,0,33.707306998346155,73.01985072891198,1.2630000114440918,,,,,,,,,,,,,,,,,,,,,,,,,,,,,,,,,,,,,,,,,,,,,,,,,,,,,,,,,,,,,,,,,,,,,,,,
270,1729315171.5654182,17620,0,33.707306998346155,73.01985072891198,1.2710000276565552,,,,,,,,,,,,,,,,,,,,,,,,,,,,,,,,,,,,,,,,,,,,,,,,,,,,,,,,,,,,,,,,,,,,,,,,
271,1729315171.6235354,18196,0,33.707306998346155,73.01985072891198,1.2710000276565552,,,,,,,,,,,,,,,,,,,,,,,,,,,,,,,,,,,,,,,,,,,,,,,,,,,,,,,,,,,,,,,,,,,,,,,,
272,1729315171.6288342,18198,0,33.707307017320794,73.01985080251676,1.2710000276565552,1729315148.0376165,14932,1729315148,0.1829999983310699,0.01,0,-0.01,1729315146.6215734,14917,1729315146,0.7416628611060986,-0.809760092,0.283,0.024581907,0.019793913,-0.749366927,0.05,-0.03,0,1729315147.0221186,14921,1729315147,0.024579626,0.019784643,-0.74960134,0.661137081,-0.000382674,-0.001790624,-0.002949097,1729315147.826125,14929,1729315147,1000,1000,1000,1000,0,1729315148.3242269,14934,1729315148,0.052033473,0.051523637,187,0,557.9299926757812,-0.007266099,1729315146,511.8274674720602,73.0198339,33.7073193,8,,,,,,,,,,,,,,,,,,,,,
273,1729315171.6342332,18234,0,33.707307017320794,73.01985080251676,1.2829999923706057,,,,,,,,,,,,,,,,,,,,,,,,,,,,,,,,,,,,,,,,,,,,,,,,,,,,,,,,,,,,,,,,,,,,,,,,
274,1729315171.635008,18279,0,33.707307017320794,73.01985080251676,1.2829999923706057,,,,,,,,,,,,,,,,,,,,,,,,,,,,,,,,,,,,,,,,,,,,,,,,,,,,,,,,,,,,,,,,,,,,,,,,
275,1729315171.6400652,18326,0,33.707307017320794,73.01985080251676,1.2829999923706057,,,,,,,,,,,,,,,,,,,,,,,,,,,,,,,,,,,,,,,,,,,,,,,,,,,,,,,,,,,,,,,,,,,,,,,,
276,1729315171.7314456,19051,0,33.70730704,73.01985104311376,1.2910000085830688,,,,,,,,,,,,,,,,,,,,,,,,,,,,,,,,,,,,,,,,,,,,,,,,,,,,,,,,,,,,,,,,,,,,,,,,
277,1729315171.7565742,19266,0,33.70730704,73.01985104311376,1.2910000085830688,,,,,,,,,,,,,,,,,,,,,,,,,,,,,,,,,,,,,,,,,,,,,,,,,,,,,,,,,,,,,,,,,,,,,,,,
278,1729315171.8060107,19690,0,33.70730704,73.01985104311376,1.2910000085830688,,,,,,,,,,,,,,,,,,,,,,,,,,,,,,,,,,,,,,,,,,,,,,,,,,,,,,,,,,,,,,,,,,,,,,,,
279,1729315171.8088658,19692,0,33.70730704,73.01985104311376,1.2910000085830688,,,,,,,,,,,,,,,,,,,,,,,,,,,,,,,,,,,,,,,,,,,,,,,,,,,,,,,,,,,,,,,,,,,,,,,,
280,1729315171.8173132,19776,0,33.70730704,73.01985104311376,1.2910000085830688,,,,,,,,,,,,,,,,,,,,,,,,,,,,,,,,,,,,,,,,,,,,,,,,,,,,1729315169.9410915,2746,1729315169,33.7073078,73.0198488,559.0299682617188,1.5707963705062866,,,,,,,,,,,,,,
281,1729315171.8236346,19803,0,33.707307158964504,73.01985106052248,1.2910000085830688,,,,,,,,,,,,,,,,,,,,,,,,,,,,,,,,,,,,,,,,,,,,,,,,,,,,,,,,,,,,,,,,,,,,,,,,
282,1729315171.8265436,19815,0,33.707307158964504,73.01985106052248,1.2910000085830688,,,,,,,,,,,,,,,,,,,,,,,,,,,,,,,,,,,,,,,,,,,,,,,,,,,,,,,,,,,,,,,,,,,,,,,,
283,1729315171.8282568,19818,0,33.707307158964504,73.01985106052248,1.2990000247955322,,,,,,,,,,,,,,,,,,,,,,,,,,,,,,,,,,,,,,,,,,,,,,,,,,,,,,,,,,,,,,,,,,,,,,,,
284,1729315171.8388216,19900,0,33.707307158964504,73.01985106052248,1.2990000247955322,,,,,,,,,,,,,,,,,,,,,,,,,,,,,,,,,,,,,,,,,,,,,,,,,,,,,,,,,,,,,,,,,,,,,,,,
285,1729315171.8856905,20317,0,33.707307158964504,73.01985106052248,1.2990000247955322,,,,,,,,,,,,,,,,,,,,,,,,,,,,,,,,,,,,,,,,,,,,,,,,,,,,,,,,,,,,,,,,,,,,,,,,
286,1729315171.9167032,20572,0,33.707307158964504,73.01985106052248,1.2990000247955322,,,,,,,,,,,,,,,,,,,,,,,,,,,,,,,,,,,,,,,,,,,,,,,,,,,,,,,,,,,,,,,,,,,,,,,,
287,1729315171.9207876,20593,0,33.707307269895026,73.01985104993479,1.3079999685287476,,,,,,,,,,,,,,,,,,,,,,,,,,,,,,,,,,,,,,,,,,,,,,,,,,,,,,,,,,,,,,,,,,,,,,,,
288,1729315171.949159,20803,0,33.707307269895026,73.01985104993479,1.3079999685287476,,,,,,,,,,,,,,,,,,,,,,,,,,,,,,,,,,,,,,,,,,,,,,,,,,,,,,,,,,,,,,,,,,,,,,,,
289,1729315172.0171812,21368,0,33.707307269895026,73.01985104993479,1.3079999685287476,1729315148.133725,14933,1729315148,0.1599999964237213,0.01,0,-0.01,1729315146.7215767,14918,1729315146,0.7416628611060986,-0.809760092,0.288,0.024590031,0.019769528,-0.749440242,0.05,-0.03,0,1729315147.1221733,14922,1729315147,0.024612479,0.019786265,-0.749685875,0.6610399517588393,1.1950789485126734e-05,-0.000231691,-0.002485402,1729315147.9268444,14930,1729315147,1000,1000,1000,1000,0,1729315148.4253545,14935,1729315148,0.051272523,0.051020458,187,0,557.9299926757812,-0.005077695,1729315146,511.8274674720602,73.0198339,33.7073193,8,,,,,,,,,,,,,,,,,,,,,
290,1729315172.027549,21394,0,33.70730757196761,73.01985096669551,1.315000057220459,,,,,,,,,,,,,,,,,,,,,,,,,,,,,,,,,,,,,,,,,,,,,,,,,,,,,,,,,,,,,,,,,,,,,,,,
291,1729315172.0310535,21425,0,33.70730757196761,73.01985096669551,1.315000057220459,,,,,,,,,,,,,,,,,,,,,,,,,,,,,,,,,,,,,,,,,,,,,,,,,,,,,,,,,,,,,,,,,,,,,,,,
292,1729315172.057675,21662,0,33.70730757196761,73.01985096669551,1.315000057220459,,,,,,,,,,,,,,,,,,,,,,,,,,,,,,,,,,,,,,,,,,,,,,,,,,,,,,,,,,,,,,,,,,,,,,,,
293,1729315172.1685708,22552,0,33.70730796645693,73.01985082199742,1.315000057220459,,,,,,,,,,,,,,,,,,,,,,,,,,,,,,,,,,,,,,,,,,,,,,,,,,,,,,,,,,,,,,,,,,,,,,,,
294,1729315172.1865597,22680,0,33.70730796645693,73.01985082199742,1.3200000524520874,,,,,,,,,,,,,,,,,,,,,,,,,,,,,,,,,,,,,,,,,,,,,,,,,,,,,,,,,,,,,,,,,,,,,,,,
295,1729315172.3291576,23803,0,33.70730899309497,73.01985073423002,1.3200000524520874,,,,,,,,,,,,,,,,,,,,,,,,,,,,,,,,,,,,,,,,,,,,,,,,,,,,,,,,,,,,,,,,,,,,,,,,
296,1729315172.3895433,24305,0,33.70730899309497,73.01985073423002,1.3200000524520874,,,,,,,,,,,,,,,,,,,,,,,,,,,,,,,,,,,,,,,,,,,,,,,,,,,,,,,,,,,,,,,,,,,,,,,,
297,1729315172.4298313,24603,0,33.70730899309497,73.01985073423002,1.3200000524520874,,,,,,,,,,,,,,,,,,,,,,,,,,,,,,,,,,,,,,,,,,,,,,,,,,,,,,,,,,,,,,,,,,,,,,,,
298,1729315172.4979482,25164,0,33.70730980548257,73.01985124199021,1.3270000219345093,,,,,,,,,,,,,,,,,,,,,,,,,,,,,,,,,,,,,,,,,,,,,,,,,,,,,,,,,,,,,,,,,,,,,,,,
299,1729315172.5245645,25356,0,33.70730980548257,73.01985124199021,1.3270000219345093,,,,,,,,,,,,,,,,,,,,,,,,,,,,,,,,,,,,,,,,,,,,,,,,,,,,,,,,,,,,,,,,,,,,,,,,
300,1729315172.5313044,25367,0,33.70731022062786,73.01985353176737,1.3329999446868896,,,,,,,,,,,,,,,,,,,,,,,,,,,,,,,,,,,,,,,,,,,,,,,,,,,,,,,,,,,,,,,,,,,,,,,,
301,1729315172.6817207,26224,0,33.70731258487221,73.01985623881293,1.3389999866485596,,,,,,,,,,,,,,,,,,,,,,,,,,,,,,,,,,,,,,,,,,,,,,,,,,,,,,,,,,,,,,,,,,,,,,,,
302,1729315172.6907084,26226,0,33.70731258487221,73.01985623881293,1.3389999866485596,,,,,,,,,,,,,,,,,,,,,,,,,,,,,,,,,,,,,,,,,,,,,,,,,,,,,,,,,,,,,,,,,,,,,,,,
303,1729315172.6909604,26419,0,33.70731258487221,73.01985623881293,1.3389999866485596,,,,,,,,,,,,,,,,,,,,,,,,,,,,,,,,,,,,,,,,,,,,,,,,,,,,,,,,,,,,,,,,,,,,,,,,
304,1729315173,26895,0,33.70731258487221,73.01985623881293,1.3389999866485596,,,,,,,,,,,,,,,,,,,,,,,,,,,,,,,,,,,,,,,,,,,,,,,,,,,,,,,,,,,,,,,,,,,,,,,,
305,1729315172.8177495,27647,0,33.70731507162481,73.01985988786004,1.3420000076293943,,,,,,,,,,,,,,,,,,,,,,,,,,,,,,,,,,,,,,,,,,,,,,,,,,,,,,,,,,,,,,,,,,,,,,,,
306,1729315172.8378406,27734,0,33.70731795310632,73.01986337688643,1.3350000381469729,1729315148.235921,14934,1729315148,0.1720000058412552,0.01,0,-0.01,1729315146.8215652,14919,1729315146,0.7416628611060986,-0.809760092,0.287,0.024587591,0.01978976,-0.74949194,0.05,-0.03,0,1729315147.2213082,14923,1729315147,0.02460051,0.019774762,-0.749769078,0.6609463697000835,-0.000137101,-0.00045203,-0.002978807,1729315148.0247395,14931,1729315148,1000,1000,1000,1000,0,1729315148.5241778,14936,1729315148,0.051023047,0.050790649,187,0,557.9400024414062,-0.004864293,1729315146,511.8274674720602,73.0198339,33.7073193,8,,,,,,,,,,,,,,,,,,,,,
307,1729315172.9441657,28109,0,33.70731795310632,73.01986337688643,1.3350000381469729,,,,,,,,,,,,,,,,,,,,,,,,,,,,,,,,,,,,,,,,,,,,,,,,,,,,,,,,,,,,,,,,,,,,,,,,
308,1729315173,28347,0,33.70731795310632,73.01986337688643,1.3350000381469729,,,,,,,,,,,,,,,,,,,,,,,,,,,,,,,,,,,,,,,,,,,,,,,,,,,,,,,,,,,,,,,,,,,,,,,,
309,1729315172.9537427,28394,0,33.707321529079536,73.01986649829529,1.3300000429153442,,,,,,,,,,,,,,,,,,,,,,,,,,,,,,,,,,,,,,,,,,,,,,,,,,,,,,,,,,,,,,,,,,,,,,,,
310,1729315173.078096,29116,0,33.707321529079536,73.01986649829529,1.3300000429153442,,,,,,,,,,,,,,,,,,,,,,,,,,,,,,,,,,,,,,,,,,,,,,,,,,,,,,,,,,,,,,,,,,,,,,,1729315158.841606,5.9
311,1729315173.086564,29321,0,33.707325188717704,73.01986897265958,1.3200000524520874,,,,,,,,,,,,,,,,,,,,,,,,,,,,,,,,,,,,,,,,,,,,,,,,,,,,,,,,,,,,,,,,,,,,,,,,
312,1729315173.1060238,29810,0,33.707325188717704,73.01986897265958,1.3200000524520874,,,,,,,,,,,,,,,,,,,,,,,,,,,,,,,,,,,,,,,,,,,,,,,,,,,,,,,,,,,,,,,,,,,,,,,,
313,1729315173.1172688,29892,0,33.707325188717704,73.01986897265958,1.3200000524520874,,,,,,,,,,,,,,,,,,,,,,,,,,,,,,,,,,,,,,,,,,,,,,,,,,,,,,,,,,,,,,,,,,,,,,,,
314,1729315173.5231855,32443,0,33.7073321,73.01986841,1.277999997138977,,,,,,,,,,,,,,,,,,,,,,,,,,,,,,,,,,,,,,,,,,,,,,,,,,,,,,,,,,,,,,,,,,,,,,,,
315,1729315173.530292,33111,0,33.70733191055658,73.01986650112067,1.2690000534057615,,,,,,,,,,,,,,,,,,,,,,,,,,,,,,,,,,,,,,,,,,,,,,,,,,,,1729315170.0474896,2747,1729315170,33.7073078,73.0198488,559.0299682617188,1.5707963705062866,,,,,,,,,,,,,,
316,1729315173.651543,33814,0,33.70733191055658,73.01986650112067,1.2690000534057615,,,,,,,,,,,,,,,,,,,,,,,,,,,,,,,,,,,,,,,,,,,,,,,,,,,,,,,,,,,,,,,,,,,,,,,,
317,1729315173.6518383,33853,0,33.70733067457321,73.01986543309629,1.2619999647140503,,,,,,,,,,,,,,,,,,,,,,,,,,,,,,,,,,,,,,,,,,,,,,,,,,,,,,,,,,,,,,,,,,,,,,,,
318,1729315173.6518786,33854,0,33.70733067457321,73.01986543309629,1.2619999647140503,,,,,,,,,,,,,,,,,,,,,,,,,,,,,,,,,,,,,,,,,,,,,,,,,,,,,,,,,,,1729315148.1819558,2003,1,0,0,1,5,,,,,,,
319,1729315173.6522305,33855,0,33.70733067457321,73.01986543309629,1.2619999647140503,,,,,,,,,,,,,,,,,,,,,,,,,,,,,,,,,,,,,,,,,,,,,,,,,,,,,,,,,,,,,,,,,,,,,,,,
320,1729315173.6522782,33856,0,33.70733157,73.01986433309654,1.2619999647140503,,,,,,,,,,,,,,,,,,,,,,,,,,,,,,,,,,,,,,,,,,,,,,,,,,,,,,,,,,,,,,,,,,,,,,,,
321,1729315173.6523807,33857,0,33.70733157,73.01986433309654,1.2619999647140503,,,,,,,,,,,,,,,,,,,,,,,,,,,,,,,,,,,,,,,,,,,,,,,,,,,,,,,,,,,,,,,,,,,,,,,,
322,1729315173.6524096,33858,0,33.70733157,73.01986433309654,1.2619999647140503,,,,,,,,,,,,,,,,,,,,,,,,,,,,,,,,,,,,,,,,,,,,,,,,,,,,,,,,,,,,,,,,,,,,,,,,
